{"type":"FeatureCollection","features":[{"type":"Feature","geometry":{"type":"Point","coordinates":[-1.62839,53.82816]},"properties":{"name":"Abbey Road","dno":"Northern Powergrid","dh":14.06,"gh":2.04,"rag":"g"}},{"type":"Feature","geometry":{"type":"Point","coordinates":[-1.044,53.53961]},"properties":{"name":"Armthorpe","dno":"Northern Powergrid","dh":0.0,"gh":0.0,"rag":"r"}},{"type":"Feature","geometry":{"type":"Point","coordinates":[-1.7946,54.33774]},"properties":{"name":"Barden Friar","dno":"Northern Powergrid","dh":0.0,"gh":0.0,"rag":"g"}},{"type":"Feature","geometry":{"type":"Point","coordinates":[-1.28856,53.52952]},"properties":{"name":"Barnburgh","dno":"Northern Powergrid","dh":0.0,"gh":0.0,"rag":"r"}},{"type":"Feature","geometry":{"type":"Point","coordinates":[-1.45368,53.41112]},"properties":{"name":"Barnsley Road","dno":"Northern Powergrid","dh":22.22,"gh":0.0,"rag":"r"}},{"type":"Feature","geometry":{"type":"Point","coordinates":[-1.51976,53.57317]},"properties":{"name":"Barugh 132/66Kv","dno":"Northern Powergrid","dh":29.82,"gh":15.53,"rag":"r"}},{"type":"Feature","geometry":{"type":"Point","coordinates":[-1.59053,54.29019]},"properties":{"name":"Bedale","dno":"Northern Powergrid","dh":0.0,"gh":0.0,"rag":"g"}},{"type":"Feature","geometry":{"type":"Point","coordinates":[-1.32687,53.35713]},"properties":{"name":"Beighton","dno":"Northern Powergrid","dh":5.54,"gh":0.0,"rag":"g"}},{"type":"Feature","geometry":{"type":"Point","coordinates":[-1.13934,53.51123]},"properties":{"name":"Belmont Avenue","dno":"Northern Powergrid","dh":0.0,"gh":0.0,"rag":"r"}},{"type":"Feature","geometry":{"type":"Point","coordinates":[-0.7917,53.98149]},"properties":{"name":"Belthorpe Lane","dno":"Northern Powergrid","dh":4.33,"gh":0.0,"rag":"r"}},{"type":"Feature","geometry":{"type":"Point","coordinates":[-0.66544,53.61637]},"properties":{"name":"Billet Lane","dno":"Northern Powergrid","dh":0.0,"gh":0.0,"rag":"r"}},{"type":"Feature","geometry":{"type":"Point","coordinates":[-1.84079,53.85313]},"properties":{"name":"Bingley 132/33Kv","dno":"Northern Powergrid","dh":65.11,"gh":14.72,"rag":"a"}},{"type":"Feature","geometry":{"type":"Point","coordinates":[-1.40629,53.41892]},"properties":{"name":"Blackburn Meadows 33/11Kv","dno":"Northern Powergrid","dh":0.0,"gh":0.0,"rag":"r"}},{"type":"Feature","geometry":{"type":"Point","coordinates":[-1.52666,55.1414]},"properties":{"name":"Blyth 132Kv","dno":"Northern Powergrid","dh":46.02,"gh":0.0,"rag":"a"}},{"type":"Feature","geometry":{"type":"Point","coordinates":[-1.93378,53.91669]},"properties":{"name":"Bolton Road","dno":"Northern Powergrid","dh":7.52,"gh":15.94,"rag":"r"}},{"type":"Feature","geometry":{"type":"Point","coordinates":[-1.41401,54.08706]},"properties":{"name":"Boroughbridge/Roecliffe Industrial","dno":"Northern Powergrid","dh":5.0,"gh":0.0,"rag":"a"}},{"type":"Feature","geometry":{"type":"Point","coordinates":[-1.31817,54.55195]},"properties":{"name":"Bowesfield","dno":"Northern Powergrid","dh":0.0,"gh":0.0,"rag":"g"}},{"type":"Feature","geometry":{"type":"Point","coordinates":[-1.31817,54.55195]},"properties":{"name":"Bowesfield 33/11Kv","dno":"Northern Powergrid","dh":0.0,"gh":0.0,"rag":"r"}},{"type":"Feature","geometry":{"type":"Point","coordinates":[-1.75279,53.80245]},"properties":{"name":"Bradford","dno":"Northern Powergrid","dh":0.0,"gh":49.43,"rag":"a"}},{"type":"Feature","geometry":{"type":"Point","coordinates":[-1.8664,53.81003]},"properties":{"name":"Bradford West","dno":"Northern Powergrid","dh":275.28,"gh":49.43,"rag":"a"}},{"type":"Feature","geometry":{"type":"Point","coordinates":[-1.62516,53.88248]},"properties":{"name":"Bramhope","dno":"Northern Powergrid","dh":3.14,"gh":0.9,"rag":"a"}},{"type":"Feature","geometry":{"type":"Point","coordinates":[-0.30534,53.78974]},"properties":{"name":"Bransholme","dno":"Northern Powergrid","dh":69.33,"gh":0.0,"rag":"g"}},{"type":"Feature","geometry":{"type":"Point","coordinates":[-0.66836,53.57155]},"properties":{"name":"Bridges Road","dno":"Northern Powergrid","dh":0.0,"gh":0.0,"rag":"r"}},{"type":"Feature","geometry":{"type":"Point","coordinates":[-1.76788,53.69905]},"properties":{"name":"Brighouse 132/33Kv","dno":"Northern Powergrid","dh":51.48,"gh":64.7,"rag":"g"}},{"type":"Feature","geometry":{"type":"Point","coordinates":[-1.56262,53.8009]},"properties":{"name":"Burley Street","dno":"Northern Powergrid","dh":10.87,"gh":40.02,"rag":"g"}},{"type":"Feature","geometry":{"type":"Point","coordinates":[-0.0956,53.77373]},"properties":{"name":"Burton Pidsea","dno":"Northern Powergrid","dh":5.09,"gh":0.0,"rag":"r"}},{"type":"Feature","geometry":{"type":"Point","coordinates":[-1.43906,53.57078]},"properties":{"name":"Burton Road","dno":"Northern Powergrid","dh":8.12,"gh":29.58,"rag":"r"}},{"type":"Feature","geometry":{"type":"Point","coordinates":[-1.54359,53.81384]},"properties":{"name":"Buslingthorpe Green","dno":"Northern Powergrid","dh":0.0,"gh":13.73,"rag":"g"}},{"type":"Feature","geometry":{"type":"Point","coordinates":[-1.00093,53.7294]},"properties":{"name":"Camblesforth","dno":"Northern Powergrid","dh":158.27,"gh":0.0,"rag":"g"}},{"type":"Feature","geometry":{"type":"Point","coordinates":[-1.39651,54.92769]},"properties":{"name":"Carley Hill","dno":"Northern Powergrid","dh":7.89,"gh":28.81,"rag":"a"}},{"type":"Feature","geometry":{"type":"Point","coordinates":[-0.90998,54.56218]},"properties":{"name":"Carlin How T3 T4","dno":"Northern Powergrid","dh":8.38,"gh":0.0,"rag":"r"}},{"type":"Feature","geometry":{"type":"Point","coordinates":[-1.54511,53.80571]},"properties":{"name":"Carlton Hill","dno":"Northern Powergrid","dh":0.0,"gh":26.78,"rag":"g"}},{"type":"Feature","geometry":{"type":"Point","coordinates":[-1.53477,53.79301]},"properties":{"name":"Clarence Road","dno":"Northern Powergrid","dh":0.0,"gh":26.49,"rag":"g"}},{"type":"Feature","geometry":{"type":"Point","coordinates":[-0.3532,53.74584]},"properties":{"name":"Clarendon Street","dno":"Northern Powergrid","dh":9.59,"gh":0.0,"rag":"a"}},{"type":"Feature","geometry":{"type":"Point","coordinates":[-1.50289,53.41754]},"properties":{"name":"Claywheels Lane","dno":"Northern Powergrid","dh":4.21,"gh":28.55,"rag":"a"}},{"type":"Feature","geometry":{"type":"Point","coordinates":[-1.37682,53.67854]},"properties":{"name":"Commonside Lane","dno":"Northern Powergrid","dh":2.26,"gh":0.0,"rag":"a"}},{"type":"Feature","geometry":{"type":"Point","coordinates":[-1.40641,54.0303]},"properties":{"name":"Coneythorpe","dno":"Northern Powergrid","dh":6.37,"gh":0.0,"rag":"r"}},{"type":"Feature","geometry":{"type":"Point","coordinates":[-1.81937,54.85448]},"properties":{"name":"Consett","dno":"Northern Powergrid","dh":0.0,"gh":0.0,"rag":"r"}},{"type":"Feature","geometry":{"type":"Point","coordinates":[-0.03685,53.56306]},"properties":{"name":"Conyard Road","dno":"Northern Powergrid","dh":0.0,"gh":0.0,"rag":"g"}},{"type":"Feature","geometry":{"type":"Point","coordinates":[-0.32685,53.75627]},"properties":{"name":"Cornwall Street Direct","dno":"Northern Powergrid","dh":17.0,"gh":0.0,"rag":"g"}},{"type":"Feature","geometry":{"type":"Point","coordinates":[-1.60556,55.09191]},"properties":{"name":"Cramlington T1 T3","dno":"Northern Powergrid","dh":0.0,"gh":0.0,"rag":"a"}},{"type":"Feature","geometry":{"type":"Point","coordinates":[-1.49039,53.38703]},"properties":{"name":"Crookesmoor Road","dno":"Northern Powergrid","dh":8.07,"gh":2.09,"rag":"a"}},{"type":"Feature","geometry":{"type":"Point","coordinates":[-1.97863,53.8959]},"properties":{"name":"Crosshills","dno":"Northern Powergrid","dh":3.49,"gh":2.69,"rag":"r"}},{"type":"Feature","geometry":{"type":"Point","coordinates":[-0.8256,53.60624]},"properties":{"name":"Crowle","dno":"Northern Powergrid","dh":0.0,"gh":0.0,"rag":"g"}},{"type":"Feature","geometry":{"type":"Point","coordinates":[-1.67846,54.03232]},"properties":{"name":"Darley","dno":"Northern Powergrid","dh":4.39,"gh":0.0,"rag":"a"}},{"type":"Feature","geometry":{"type":"Point","coordinates":[-1.54674,54.52755]},"properties":{"name":"Darlington 132/6Kv Direct","dno":"Northern Powergrid","dh":0.0,"gh":0.0,"rag":"r"}},{"type":"Feature","geometry":{"type":"Point","coordinates":[-1.54025,54.52605]},"properties":{"name":"Darlington Central 33/11Kv","dno":"Northern Powergrid","dh":0.0,"gh":0.0,"rag":"a"}},{"type":"Feature","geometry":{"type":"Point","coordinates":[-1.56141,54.55575]},"properties":{"name":"Darlington North","dno":"Northern Powergrid","dh":0.0,"gh":0.0,"rag":"g"}},{"type":"Feature","geometry":{"type":"Point","coordinates":[-1.89738,53.80488]},"properties":{"name":"Denholme","dno":"Northern Powergrid","dh":2.1,"gh":6.98,"rag":"a"}},{"type":"Feature","geometry":{"type":"Point","coordinates":[-1.2218,53.37535]},"properties":{"name":"Dinnington","dno":"Northern Powergrid","dh":15.38,"gh":0.0,"rag":"a"}},{"type":"Feature","geometry":{"type":"Point","coordinates":[-1.14714,53.52618]},"properties":{"name":"Doncaster B/Thorpe Marsh","dno":"Northern Powergrid","dh":0.0,"gh":0.0,"rag":"r"}},{"type":"Feature","geometry":{"type":"Point","coordinates":[-1.72727,53.77477]},"properties":{"name":"Dudley Hill","dno":"Northern Powergrid","dh":0.0,"gh":34.82,"rag":"g"}},{"type":"Feature","geometry":{"type":"Point","coordinates":[-1.66088,54.95986]},"properties":{"name":"Dunston 66/11Kv","dno":"Northern Powergrid","dh":11.02,"gh":0.0,"rag":"a"}},{"type":"Feature","geometry":{"type":"Point","coordinates":[-1.57639,54.78103]},"properties":{"name":"Durham East","dno":"Northern Powergrid","dh":7.32,"gh":0.0,"rag":"a"}},{"type":"Feature","geometry":{"type":"Point","coordinates":[-1.51183,53.64841]},"properties":{"name":"Durkar Low Lane","dno":"Northern Powergrid","dh":7.53,"gh":28.1,"rag":"r"}},{"type":"Feature","geometry":{"type":"Point","coordinates":[-1.4521,53.44458]},"properties":{"name":"Ecclesfield","dno":"Northern Powergrid","dh":8.12,"gh":0.0,"rag":"r"}},{"type":"Feature","geometry":{"type":"Point","coordinates":[-1.82294,53.69488]},"properties":{"name":"Elland","dno":"Northern Powergrid","dh":273.28,"gh":64.7,"rag":"g"}},{"type":"Feature","geometry":{"type":"Point","coordinates":[-1.53842,53.5471]},"properties":{"name":"Elmhirst Lane 2","dno":"Northern Powergrid","dh":16.19,"gh":25.45,"rag":"r"}},{"type":"Feature","geometry":{"type":"Point","coordinates":[-1.24865,54.56934]},"properties":{"name":"Faraday Street","dno":"Northern Powergrid","dh":0.0,"gh":0.0,"rag":"a"}},{"type":"Feature","geometry":{"type":"Point","coordinates":[-1.66688,55.01483]},"properties":{"name":"Fawdon/Seaton Burn","dno":"Northern Powergrid","dh":0.0,"gh":0.0,"rag":"a"}},{"type":"Feature","geometry":{"type":"Point","coordinates":[-1.38455,53.68614]},"properties":{"name":"Featherstone","dno":"Northern Powergrid","dh":31.72,"gh":0.0,"rag":"a"}},{"type":"Feature","geometry":{"type":"Point","coordinates":[-1.27084,53.71888]},"properties":{"name":"Ferrybridge B","dno":"Northern Powergrid","dh":167.66,"gh":0.0,"rag":"a"}},{"type":"Feature","geometry":{"type":"Point","coordinates":[-0.35948,53.78145]},"properties":{"name":"First Avenue","dno":"Northern Powergrid","dh":4.96,"gh":0.0,"rag":"r"}},{"type":"Feature","geometry":{"type":"Point","coordinates":[-0.61659,53.59373]},"properties":{"name":"Firth Brown","dno":"Northern Powergrid","dh":0.0,"gh":0.0,"rag":"r"}},{"type":"Feature","geometry":{"type":"Point","coordinates":[-1.48151,55.00146]},"properties":{"name":"Flatworth","dno":"Northern Powergrid","dh":7.49,"gh":0.0,"rag":"g"}},{"type":"Feature","geometry":{"type":"Point","coordinates":[-1.48049,55.00132]},"properties":{"name":"Flatworth Central","dno":"Northern Powergrid","dh":7.49,"gh":0.0,"rag":"g"}},{"type":"Feature","geometry":{"type":"Point","coordinates":[-1.56474,54.9798]},"properties":{"name":"Fossway 33/11Kv","dno":"Northern Powergrid","dh":5.6,"gh":15.58,"rag":"g"}},{"type":"Feature","geometry":{"type":"Point","coordinates":[-0.66424,53.61259]},"properties":{"name":"Foxhills","dno":"Northern Powergrid","dh":0.0,"gh":0.0,"rag":"r"}},{"type":"Feature","geometry":{"type":"Point","coordinates":[-1.68053,54.64181]},"properties":{"name":"Fylands Bridge","dno":"Northern Powergrid","dh":4.15,"gh":0.0,"rag":"a"}},{"type":"Feature","geometry":{"type":"Point","coordinates":[-1.76423,53.81983]},"properties":{"name":"Gaisby Lane","dno":"Northern Powergrid","dh":0.0,"gh":3.66,"rag":"a"}},{"type":"Feature","geometry":{"type":"Point","coordinates":[-1.44317,54.98626]},"properties":{"name":"Garwood Street","dno":"Northern Powergrid","dh":17.5,"gh":35.55,"rag":"r"}},{"type":"Feature","geometry":{"type":"Point","coordinates":[-1.89123,53.72136]},"properties":{"name":"Gibraltar Road","dno":"Northern Powergrid","dh":7.76,"gh":0.5,"rag":"a"}},{"type":"Feature","geometry":{"type":"Point","coordinates":[-1.6353,53.75051]},"properties":{"name":"Gildersome","dno":"Northern Powergrid","dh":9.42,"gh":0.0,"rag":"g"}},{"type":"Feature","geometry":{"type":"Point","coordinates":[-1.60539,55.00972]},"properties":{"name":"Gosforth","dno":"Northern Powergrid","dh":35.94,"gh":111.5,"rag":"g"}},{"type":"Feature","geometry":{"type":"Point","coordinates":[-1.14967,54.58159]},"properties":{"name":"Grangetown","dno":"Northern Powergrid","dh":7.04,"gh":0.0,"rag":"a"}},{"type":"Feature","geometry":{"type":"Point","coordinates":[-1.13795,53.52622]},"properties":{"name":"Greyfriars Rd","dno":"Northern Powergrid","dh":0.0,"gh":0.0,"rag":"r"}},{"type":"Feature","geometry":{"type":"Point","coordinates":[-1.38192,53.57083]},"properties":{"name":"Grimethorpe","dno":"Northern Powergrid","dh":15.79,"gh":0.0,"rag":"g"}},{"type":"Feature","geometry":{"type":"Point","coordinates":[-0.9074,53.69359]},"properties":{"name":"Guardian Glass","dno":"Northern Powergrid","dh":18.38,"gh":0.0,"rag":"g"}},{"type":"Feature","geometry":{"type":"Point","coordinates":[-1.05684,54.54252]},"properties":{"name":"Guisborough T1 T2","dno":"Northern Powergrid","dh":9.12,"gh":0.0,"rag":"r"}},{"type":"Feature","geometry":{"type":"Point","coordinates":[-1.38439,53.35064]},"properties":{"name":"Hackenthorpe","dno":"Northern Powergrid","dh":12.3,"gh":0.0,"rag":"a"}},{"type":"Feature","geometry":{"type":"Point","coordinates":[-1.71302,53.8731]},"properties":{"name":"Hallam Street","dno":"Northern Powergrid","dh":14.65,"gh":1.17,"rag":"a"}},{"type":"Feature","geometry":{"type":"Point","coordinates":[-1.55404,54.00109]},"properties":{"name":"Harrogate 132/11Kv Direct","dno":"Northern Powergrid","dh":3.03,"gh":0.0,"rag":"g"}},{"type":"Feature","geometry":{"type":"Point","coordinates":[-1.55404,54.00109]},"properties":{"name":"Harrogate 132/33Kv","dno":"Northern Powergrid","dh":66.8,"gh":0.0,"rag":"g"}},{"type":"Feature","geometry":{"type":"Point","coordinates":[-1.0637,53.41624]},"properties":{"name":"Harworth","dno":"Northern Powergrid","dh":13.67,"gh":0.0,"rag":"g"}},{"type":"Feature","geometry":{"type":"Point","coordinates":[-1.39777,54.80622]},"properties":{"name":"Hawthorn Pit","dno":"Northern Powergrid","dh":3.99,"gh":0.0,"rag":"r"}},{"type":"Feature","geometry":{"type":"Point","coordinates":[-1.73422,53.54038]},"properties":{"name":"Hazlehead","dno":"Northern Powergrid","dh":17.32,"gh":15.77,"rag":"g"}},{"type":"Feature","geometry":{"type":"Point","coordinates":[-1.5192,54.9775]},"properties":{"name":"Hebburn","dno":"Northern Powergrid","dh":8.38,"gh":7.1,"rag":"a"}},{"type":"Feature","geometry":{"type":"Point","coordinates":[-1.52519,54.97189]},"properties":{"name":"Hebburn West","dno":"Northern Powergrid","dh":21.24,"gh":0.84,"rag":"a"}},{"type":"Feature","geometry":{"type":"Point","coordinates":[-2.02969,53.7397]},"properties":{"name":"Hebden Bridge","dno":"Northern Powergrid","dh":5.05,"gh":8.0,"rag":"r"}},{"type":"Feature","geometry":{"type":"Point","coordinates":[-1.57106,53.7955]},"properties":{"name":"Hedley Chase","dno":"Northern Powergrid","dh":12.77,"gh":13.39,"rag":"g"}},{"type":"Feature","geometry":{"type":"Point","coordinates":[-1.29892,53.54388]},"properties":{"name":"Hickleton","dno":"Northern Powergrid","dh":0.0,"gh":0.0,"rag":"r"}},{"type":"Feature","geometry":{"type":"Point","coordinates":[-1.49279,54.89591]},"properties":{"name":"High Barmston","dno":"Northern Powergrid","dh":0.0,"gh":25.36,"rag":"a"}},{"type":"Feature","geometry":{"type":"Point","coordinates":[-1.54982,53.78696]},"properties":{"name":"Holbeck","dno":"Northern Powergrid","dh":0.0,"gh":4.23,"rag":"g"}},{"type":"Feature","geometry":{"type":"Point","coordinates":[-0.26594,53.77404]},"properties":{"name":"Holderness","dno":"Northern Powergrid","dh":11.58,"gh":0.0,"rag":"g"}},{"type":"Feature","geometry":{"type":"Point","coordinates":[-1.80172,53.6037]},"properties":{"name":"Honley","dno":"Northern Powergrid","dh":13.3,"gh":26.33,"rag":"g"}},{"type":"Feature","geometry":{"type":"Point","coordinates":[-1.56759,53.66454]},"properties":{"name":"Horbury","dno":"Northern Powergrid","dh":9.17,"gh":24.52,"rag":"g"}},{"type":"Feature","geometry":{"type":"Point","coordinates":[-1.4858,54.84619]},"properties":{"name":"Houghton","dno":"Northern Powergrid","dh":7.27,"gh":0.0,"rag":"a"}},{"type":"Feature","geometry":{"type":"Point","coordinates":[-1.36402,53.54708]},"properties":{"name":"Houghton Main","dno":"Northern Powergrid","dh":8.98,"gh":0.0,"rag":"r"}},{"type":"Feature","geometry":{"type":"Point","coordinates":[-0.46305,53.72297]},"properties":{"name":"Hull West","dno":"Northern Powergrid","dh":36.69,"gh":0.0,"rag":"g"}},{"type":"Feature","geometry":{"type":"Point","coordinates":[-1.44947,53.54841]},"properties":{"name":"Hunningley","dno":"Northern Powergrid","dh":83.74,"gh":110.66,"rag":"r"}},{"type":"Feature","geometry":{"type":"Point","coordinates":[-1.60542,53.49616]},"properties":{"name":"Hunshelf","dno":"Northern Powergrid","dh":85.94,"gh":82.89,"rag":"r"}},{"type":"Feature","geometry":{"type":"Point","coordinates":[-1.22719,54.15715]},"properties":{"name":"Husthwaite","dno":"Northern Powergrid","dh":21.76,"gh":0.0,"rag":"g"}},{"type":"Feature","geometry":{"type":"Point","coordinates":[-1.22719,54.15715]},"properties":{"name":"Husthwaite 33/11Kv","dno":"Northern Powergrid","dh":2.5,"gh":0.0,"rag":"g"}},{"type":"Feature","geometry":{"type":"Point","coordinates":[-1.83554,53.92694]},"properties":{"name":"Ilkley","dno":"Northern Powergrid","dh":10.29,"gh":24.05,"rag":"r"}},{"type":"Feature","geometry":{"type":"Point","coordinates":[-1.1307,53.51778]},"properties":{"name":"Jarratt Street","dno":"Northern Powergrid","dh":0.0,"gh":0.0,"rag":"r"}},{"type":"Feature","geometry":{"type":"Point","coordinates":[-1.45965,53.33032]},"properties":{"name":"Jordanthorpe","dno":"Northern Powergrid","dh":64.26,"gh":0.0,"rag":"r"}},{"type":"Feature","geometry":{"type":"Point","coordinates":[-0.75012,53.59727]},"properties":{"name":"Keadby","dno":"Northern Powergrid","dh":0.0,"gh":0.0,"rag":"r"}},{"type":"Feature","geometry":{"type":"Point","coordinates":[0.01504,53.37722]},"properties":{"name":"Keddington Road","dno":"Northern Powergrid","dh":0.0,"gh":0.0,"rag":"r"}},{"type":"Feature","geometry":{"type":"Point","coordinates":[-1.71897,53.79677]},"properties":{"name":"Killinghall Road","dno":"Northern Powergrid","dh":0.0,"gh":0.0,"rag":"a"}},{"type":"Feature","geometry":{"type":"Point","coordinates":[-1.07604,53.55875]},"properties":{"name":"Kirk Sandall","dno":"Northern Powergrid","dh":0.0,"gh":0.0,"rag":"r"}},{"type":"Feature","geometry":{"type":"Point","coordinates":[-0.51489,53.97801]},"properties":{"name":"Kirkburn","dno":"Northern Powergrid","dh":0.75,"gh":0.0,"rag":"r"}},{"type":"Feature","geometry":{"type":"Point","coordinates":[-1.59021,53.80664]},"properties":{"name":"Kirkstall C/Ring Road Horsforth","dno":"Northern Powergrid","dh":35.76,"gh":127.16,"rag":"g"}},{"type":"Feature","geometry":{"type":"Point","coordinates":[-1.25988,53.33459]},"properties":{"name":"Kiveton Park","dno":"Northern Powergrid","dh":6.26,"gh":0.0,"rag":"g"}},{"type":"Feature","geometry":{"type":"Point","coordinates":[-1.48845,54.03164]},"properties":{"name":"Knaresborough","dno":"Northern Powergrid","dh":91.35,"gh":0.0,"rag":"g"}},{"type":"Feature","geometry":{"type":"Point","coordinates":[-1.13246,54.56768]},"properties":{"name":"Lackenby","dno":"Northern Powergrid","dh":101.8,"gh":0.0,"rag":"g"}},{"type":"Feature","geometry":{"type":"Point","coordinates":[-1.5247,53.77244]},"properties":{"name":"Leasowe Road","dno":"Northern Powergrid","dh":0.0,"gh":14.61,"rag":"g"}},{"type":"Feature","geometry":{"type":"Point","coordinates":[-1.42408,53.90262]},"properties":{"name":"Leeds Road","dno":"Northern Powergrid","dh":0.92,"gh":0.0,"rag":"a"}},{"type":"Feature","geometry":{"type":"Point","coordinates":[-1.53477,53.80303]},"properties":{"name":"Leylands Road","dno":"Northern Powergrid","dh":0.0,"gh":15.65,"rag":"g"}},{"type":"Feature","geometry":{"type":"Point","coordinates":[-1.82792,53.65491]},"properties":{"name":"Lindley","dno":"Northern Powergrid","dh":48.45,"gh":64.7,"rag":"g"}},{"type":"Feature","geometry":{"type":"Point","coordinates":[-1.60629,55.22821]},"properties":{"name":"Linton","dno":"Northern Powergrid","dh":21.04,"gh":0.0,"rag":"a"}},{"type":"Feature","geometry":{"type":"Point","coordinates":[-1.60629,55.22821]},"properties":{"name":"Linton 66/20Kv","dno":"Northern Powergrid","dh":19.49,"gh":0.0,"rag":"a"}},{"type":"Feature","geometry":{"type":"Point","coordinates":[-0.01208,53.38208]},"properties":{"name":"Louth","dno":"Northern Powergrid","dh":0.0,"gh":0.0,"rag":"r"}},{"type":"Feature","geometry":{"type":"Point","coordinates":[-1.76226,53.75492]},"properties":{"name":"Low Moor","dno":"Northern Powergrid","dh":0.0,"gh":8.09,"rag":"g"}},{"type":"Feature","geometry":{"type":"Point","coordinates":[-1.53462,55.20553]},"properties":{"name":"Lynemouth","dno":"Northern Powergrid","dh":21.04,"gh":0.0,"rag":"a"}},{"type":"Feature","geometry":{"type":"Point","coordinates":[-0.78086,54.15052]},"properties":{"name":"Malton Grid","dno":"Northern Powergrid","dh":12.49,"gh":0.0,"rag":"g"}},{"type":"Feature","geometry":{"type":"Point","coordinates":[-1.40877,53.3547]},"properties":{"name":"Mansfield Road 1","dno":"Northern Powergrid","dh":5.33,"gh":2.79,"rag":"r"}},{"type":"Feature","geometry":{"type":"Point","coordinates":[-1.61146,54.74558]},"properties":{"name":"Meadowfield","dno":"Northern Powergrid","dh":14.87,"gh":0.0,"rag":"a"}},{"type":"Feature","geometry":{"type":"Point","coordinates":[-1.0597,53.95916]},"properties":{"name":"Melrosegate 33/11Kv","dno":"Northern Powergrid","dh":22.78,"gh":0.0,"rag":"g"}},{"type":"Feature","geometry":{"type":"Point","coordinates":[-1.83834,53.59579]},"properties":{"name":"Meltham","dno":"Northern Powergrid","dh":15.66,"gh":1.04,"rag":"g"}},{"type":"Feature","geometry":{"type":"Point","coordinates":[-1.26429,53.49368]},"properties":{"name":"Mexborough 1_2","dno":"Northern Powergrid","dh":4.58,"gh":0.0,"rag":"a"}},{"type":"Feature","geometry":{"type":"Point","coordinates":[-1.69177,53.67037]},"properties":{"name":"Mirfield","dno":"Northern Powergrid","dh":6.17,"gh":25.73,"rag":"g"}},{"type":"Feature","geometry":{"type":"Point","coordinates":[-1.43239,53.60849]},"properties":{"name":"Monckton","dno":"Northern Powergrid","dh":6.61,"gh":0.0,"rag":"a"}},{"type":"Feature","geometry":{"type":"Point","coordinates":[-1.47019,55.04263]},"properties":{"name":"Monkseaton","dno":"Northern Powergrid","dh":0.93,"gh":24.85,"rag":"r"}},{"type":"Feature","geometry":{"type":"Point","coordinates":[-1.60476,53.74355]},"properties":{"name":"Morley","dno":"Northern Powergrid","dh":9.0,"gh":25.69,"rag":"g"}},{"type":"Feature","geometry":{"type":"Point","coordinates":[-1.8119,53.83387]},"properties":{"name":"Nabwood","dno":"Northern Powergrid","dh":13.19,"gh":14.1,"rag":"a"}},{"type":"Feature","geometry":{"type":"Point","coordinates":[-0.38325,53.75508]},"properties":{"name":"National Avenue","dno":"Northern Powergrid","dh":17.41,"gh":0.0,"rag":"g"}},{"type":"Feature","geometry":{"type":"Point","coordinates":[-1.48662,53.40359]},"properties":{"name":"Neepsend","dno":"Northern Powergrid","dh":59.14,"gh":116.33,"rag":"a"}},{"type":"Feature","geometry":{"type":"Point","coordinates":[-1.41674,53.42928]},"properties":{"name":"New Droppingwell Road","dno":"Northern Powergrid","dh":15.5,"gh":26.82,"rag":"r"}},{"type":"Feature","geometry":{"type":"Point","coordinates":[-1.25379,53.40218]},"properties":{"name":"New Orchard Lane","dno":"Northern Powergrid","dh":11.85,"gh":0.0,"rag":"a"}},{"type":"Feature","geometry":{"type":"Point","coordinates":[-0.43328,54.28901]},"properties":{"name":"Newby","dno":"Northern Powergrid","dh":10.73,"gh":0.0,"rag":"g"}},{"type":"Feature","geometry":{"type":"Point","coordinates":[-1.71008,55.03497]},"properties":{"name":"Newcastle Airport","dno":"Northern Powergrid","dh":11.53,"gh":0.0,"rag":"a"}},{"type":"Feature","geometry":{"type":"Point","coordinates":[-1.4375,53.40036]},"properties":{"name":"Newhall Road","dno":"Northern Powergrid","dh":12.1,"gh":0.0,"rag":"r"}},{"type":"Feature","geometry":{"type":"Point","coordinates":[-1.58482,54.61018]},"properties":{"name":"Newton Aycliffe South","dno":"Northern Powergrid","dh":0.0,"gh":0.0,"rag":"a"}},{"type":"Feature","geometry":{"type":"Point","coordinates":[-0.45773,53.38125]},"properties":{"name":"Normanby","dno":"Northern Powergrid","dh":0.0,"gh":0.0,"rag":"r"}},{"type":"Feature","geometry":{"type":"Point","coordinates":[-1.68896,53.90891]},"properties":{"name":"North Avenue","dno":"Northern Powergrid","dh":12.86,"gh":26.38,"rag":"a"}},{"type":"Feature","geometry":{"type":"Point","coordinates":[-0.40106,54.28421]},"properties":{"name":"North Street","dno":"Northern Powergrid","dh":13.92,"gh":0.0,"rag":"g"}},{"type":"Feature","geometry":{"type":"Point","coordinates":[-1.26041,54.58981]},"properties":{"name":"North Tees T1 T2","dno":"Northern Powergrid","dh":0.0,"gh":0.0,"rag":"a"}},{"type":"Feature","geometry":{"type":"Point","coordinates":[-1.26041,54.58981]},"properties":{"name":"North Tees T3 T4","dno":"Northern Powergrid","dh":0.0,"gh":0.0,"rag":"a"}},{"type":"Feature","geometry":{"type":"Point","coordinates":[-0.42484,53.85073]},"properties":{"name":"Norwood","dno":"Northern Powergrid","dh":6.98,"gh":0.0,"rag":"r"}},{"type":"Feature","geometry":{"type":"Point","coordinates":[-1.82456,53.6543]},"properties":{"name":"Oakes Road","dno":"Northern Powergrid","dh":12.07,"gh":3.29,"rag":"g"}},{"type":"Feature","geometry":{"type":"Point","coordinates":[-1.4903,53.81604]},"properties":{"name":"Oakwood Lane","dno":"Northern Powergrid","dh":15.17,"gh":0.0,"rag":"a"}},{"type":"Feature","geometry":{"type":"Point","coordinates":[-1.53129,53.97684]},"properties":{"name":"Oatlands","dno":"Northern Powergrid","dh":13.41,"gh":0.0,"rag":"r"}},{"type":"Feature","geometry":{"type":"Point","coordinates":[-1.0517,53.78564]},"properties":{"name":"Olympia Mills","dno":"Northern Powergrid","dh":13.41,"gh":0.0,"rag":"a"}},{"type":"Feature","geometry":{"type":"Point","coordinates":[-1.37227,53.37771]},"properties":{"name":"Orgreave","dno":"Northern Powergrid","dh":0.0,"gh":0.0,"rag":"r"}},{"type":"Feature","geometry":{"type":"Point","coordinates":[-0.09964,53.71004]},"properties":{"name":"Ottringham Road","dno":"Northern Powergrid","dh":0.0,"gh":0.0,"rag":"r"}},{"type":"Feature","geometry":{"type":"Point","coordinates":[-1.51099,53.71798]},"properties":{"name":"Outwood","dno":"Northern Powergrid","dh":0.0,"gh":3.61,"rag":"g"}},{"type":"Feature","geometry":{"type":"Point","coordinates":[-1.63232,53.68473]},"properties":{"name":"Park Road","dno":"Northern Powergrid","dh":6.75,"gh":1.48,"rag":"a"}},{"type":"Feature","geometry":{"type":"Point","coordinates":[-1.37386,53.43259]},"properties":{"name":"Park Street Direct","dno":"Northern Powergrid","dh":0.0,"gh":0.0,"rag":"r"}},{"type":"Feature","geometry":{"type":"Point","coordinates":[-0.376,53.73997]},"properties":{"name":"Plangeo","dno":"Northern Powergrid","dh":10.45,"gh":0.0,"rag":"g"}},{"type":"Feature","geometry":{"type":"Point","coordinates":[-1.59178,54.79962]},"properties":{"name":"Potter House T1 T3","dno":"Northern Powergrid","dh":8.76,"gh":0.0,"rag":"r"}},{"type":"Feature","geometry":{"type":"Point","coordinates":[-1.59178,54.79962]},"properties":{"name":"Potter House T4 T5","dno":"Northern Powergrid","dh":19.87,"gh":0.0,"rag":"a"}},{"type":"Feature","geometry":{"type":"Point","coordinates":[-0.17689,53.62179]},"properties":{"name":"Queens Road","dno":"Northern Powergrid","dh":0.0,"gh":0.0,"rag":"g"}},{"type":"Feature","geometry":{"type":"Point","coordinates":[-0.94452,53.68251]},"properties":{"name":"Rawcliffe","dno":"Northern Powergrid","dh":3.34,"gh":0.0,"rag":"a"}},{"type":"Feature","geometry":{"type":"Point","coordinates":[-1.69126,53.85899]},"properties":{"name":"Rawdon","dno":"Northern Powergrid","dh":0.0,"gh":25.93,"rag":"g"}},{"type":"Feature","geometry":{"type":"Point","coordinates":[-1.35642,53.43626]},"properties":{"name":"Rawmarsh Road 1_2 Direct","dno":"Northern Powergrid","dh":0.0,"gh":0.0,"rag":"r"}},{"type":"Feature","geometry":{"type":"Point","coordinates":[-1.7586,53.79665]},"properties":{"name":"Rawson Road","dno":"Northern Powergrid","dh":12.91,"gh":2.21,"rag":"a"}},{"type":"Feature","geometry":{"type":"Point","coordinates":[-1.72109,54.41111]},"properties":{"name":"Richmond T1","dno":"Northern Powergrid","dh":0.0,"gh":0.0,"rag":"r"}},{"type":"Feature","geometry":{"type":"Point","coordinates":[-1.72109,54.41111]},"properties":{"name":"Richmond T2","dno":"Northern Powergrid","dh":0.0,"gh":0.0,"rag":"r"}},{"type":"Feature","geometry":{"type":"Point","coordinates":[-1.55917,54.54627]},"properties":{"name":"Rise Carr","dno":"Northern Powergrid","dh":0.0,"gh":0.0,"rag":"r"}},{"type":"Feature","geometry":{"type":"Point","coordinates":[-1.66592,53.82422]},"properties":{"name":"Rodley Lane","dno":"Northern Powergrid","dh":0.0,"gh":3.13,"rag":"g"}},{"type":"Feature","geometry":{"type":"Point","coordinates":[-1.45294,54.32681]},"properties":{"name":"Romanby","dno":"Northern Powergrid","dh":0.0,"gh":0.0,"rag":"g"}},{"type":"Feature","geometry":{"type":"Point","coordinates":[-1.77315,53.65074]},"properties":{"name":"Saint Andrews Road 33/11Kv","dno":"Northern Powergrid","dh":0.0,"gh":13.95,"rag":"g"}},{"type":"Feature","geometry":{"type":"Point","coordinates":[-2.16463,53.90876]},"properties":{"name":"Salterforth","dno":"Northern Powergrid","dh":12.37,"gh":25.62,"rag":"r"}},{"type":"Feature","geometry":{"type":"Point","coordinates":[-1.47649,53.3594]},"properties":{"name":"Saxon Road","dno":"Northern Powergrid","dh":12.72,"gh":2.68,"rag":"r"}},{"type":"Feature","geometry":{"type":"Point","coordinates":[-0.41437,54.26479]},"properties":{"name":"Scarborough Grid","dno":"Northern Powergrid","dh":30.23,"gh":0.0,"rag":"g"}},{"type":"Feature","geometry":{"type":"Point","coordinates":[-1.46298,53.82698]},"properties":{"name":"Seacroft","dno":"Northern Powergrid","dh":10.3,"gh":0.0,"rag":"a"}},{"type":"Feature","geometry":{"type":"Point","coordinates":[-1.11831,53.95946]},"properties":{"name":"Severus Hill","dno":"Northern Powergrid","dh":11.03,"gh":0.0,"rag":"g"}},{"type":"Feature","geometry":{"type":"Point","coordinates":[-1.42308,53.67416]},"properties":{"name":"Sharlston","dno":"Northern Powergrid","dh":12.72,"gh":0.0,"rag":"a"}},{"type":"Feature","geometry":{"type":"Point","coordinates":[-1.47857,53.37485]},"properties":{"name":"Sheffield City","dno":"Northern Powergrid","dh":34.18,"gh":147.4,"rag":"r"}},{"type":"Feature","geometry":{"type":"Point","coordinates":[-1.76628,53.83784]},"properties":{"name":"Shipley","dno":"Northern Powergrid","dh":0.0,"gh":25.29,"rag":"a"}},{"type":"Feature","geometry":{"type":"Point","coordinates":[-2.00329,53.95739]},"properties":{"name":"Skipton","dno":"Northern Powergrid","dh":5.78,"gh":21.83,"rag":"r"}},{"type":"Feature","geometry":{"type":"Point","coordinates":[-1.33862,53.73192]},"properties":{"name":"Smith Street","dno":"Northern Powergrid","dh":10.74,"gh":0.0,"rag":"a"}},{"type":"Feature","geometry":{"type":"Point","coordinates":[-1.4743,53.57339]},"properties":{"name":"Smithy Green","dno":"Northern Powergrid","dh":3.24,"gh":1.14,"rag":"r"}},{"type":"Feature","geometry":{"type":"Point","coordinates":[-1.33294,53.60101]},"properties":{"name":"South Kirkby","dno":"Northern Powergrid","dh":12.68,"gh":0.0,"rag":"g"}},{"type":"Feature","geometry":{"type":"Point","coordinates":[0.11294,53.32306]},"properties":{"name":"South Reston","dno":"Northern Powergrid","dh":0.0,"gh":0.0,"rag":"r"}},{"type":"Feature","geometry":{"type":"Point","coordinates":[-1.92335,53.70864]},"properties":{"name":"Sowerby Bridge 33/11Kv","dno":"Northern Powergrid","dh":7.59,"gh":23.7,"rag":"r"}},{"type":"Feature","geometry":{"type":"Point","coordinates":[-0.41725,53.83693]},"properties":{"name":"Spark Mill Lane","dno":"Northern Powergrid","dh":7.34,"gh":0.0,"rag":"r"}},{"type":"Feature","geometry":{"type":"Point","coordinates":[-1.55666,54.70638]},"properties":{"name":"Spennymoor 66/20Kv","dno":"Northern Powergrid","dh":13.06,"gh":0.0,"rag":"a"}},{"type":"Feature","geometry":{"type":"Point","coordinates":[-1.75309,53.78278]},"properties":{"name":"Spring Mill Street","dno":"Northern Powergrid","dh":0.0,"gh":2.38,"rag":"g"}},{"type":"Feature","geometry":{"type":"Point","coordinates":[-1.49864,53.99709]},"properties":{"name":"Starbeck","dno":"Northern Powergrid","dh":0.0,"gh":0.0,"rag":"r"}},{"type":"Feature","geometry":{"type":"Point","coordinates":[-1.73261,54.97441]},"properties":{"name":"Stella South","dno":"Northern Powergrid","dh":0.0,"gh":0.0,"rag":"r"}},{"type":"Feature","geometry":{"type":"Point","coordinates":[-1.18768,54.47663]},"properties":{"name":"Stokesley","dno":"Northern Powergrid","dh":0.0,"gh":0.0,"rag":"a"}},{"type":"Feature","geometry":{"type":"Point","coordinates":[-1.3584,54.81563]},"properties":{"name":"Stoney Cut","dno":"Northern Powergrid","dh":13.83,"gh":0.0,"rag":"r"}},{"type":"Feature","geometry":{"type":"Point","coordinates":[-0.69439,53.32268]},"properties":{"name":"Stow","dno":"Northern Powergrid","dh":0.0,"gh":0.0,"rag":"r"}},{"type":"Feature","geometry":{"type":"Point","coordinates":[-1.70177,54.88597]},"properties":{"name":"Tanfield","dno":"Northern Powergrid","dh":0.0,"gh":0.0,"rag":"a"}},{"type":"Feature","geometry":{"type":"Point","coordinates":[-1.4707,53.47811]},"properties":{"name":"Tankersley Park","dno":"Northern Powergrid","dh":2.36,"gh":0.0,"rag":"r"}},{"type":"Feature","geometry":{"type":"Point","coordinates":[-1.38768,53.41216]},"properties":{"name":"Templeborough 275/33Kv","dno":"Northern Powergrid","dh":68.56,"gh":26.5,"rag":"g"}},{"type":"Feature","geometry":{"type":"Point","coordinates":[-1.38178,53.41777]},"properties":{"name":"Templeborough 33/11Kv","dno":"Northern Powergrid","dh":0.0,"gh":0.0,"rag":"r"}},{"type":"Feature","geometry":{"type":"Point","coordinates":[-1.70974,53.79844]},"properties":{"name":"Thornbury","dno":"Northern Powergrid","dh":0.0,"gh":4.59,"rag":"g"}},{"type":"Feature","geometry":{"type":"Point","coordinates":[-1.65349,53.6776]},"properties":{"name":"Thornhill 132Kv","dno":"Northern Powergrid","dh":23.71,"gh":64.7,"rag":"g"}},{"type":"Feature","geometry":{"type":"Point","coordinates":[-1.83201,53.79254]},"properties":{"name":"Thornton","dno":"Northern Powergrid","dh":9.95,"gh":26.07,"rag":"a"}},{"type":"Feature","geometry":{"type":"Point","coordinates":[-0.84441,53.75378]},"properties":{"name":"Thorpe Road","dno":"Northern Powergrid","dh":8.78,"gh":0.0,"rag":"g"}},{"type":"Feature","geometry":{"type":"Point","coordinates":[-1.16204,53.42311]},"properties":{"name":"Tickhill Road","dno":"Northern Powergrid","dh":9.11,"gh":0.0,"rag":"g"}},{"type":"Feature","geometry":{"type":"Point","coordinates":[-1.41726,53.3989]},"properties":{"name":"Tinsley Park Road","dno":"Northern Powergrid","dh":4.54,"gh":3.02,"rag":"r"}},{"type":"Feature","geometry":{"type":"Point","coordinates":[-1.40736,53.40795]},"properties":{"name":"Tinsley Wire Industries","dno":"Northern Powergrid","dh":0.0,"gh":0.0,"rag":"r"}},{"type":"Feature","geometry":{"type":"Point","coordinates":[-1.70255,54.67354]},"properties":{"name":"Toronto","dno":"Northern Powergrid","dh":56.51,"gh":0.0,"rag":"g"}},{"type":"Feature","geometry":{"type":"Point","coordinates":[-1.70255,54.67354]},"properties":{"name":"Toronto 66/20Kv","dno":"Northern Powergrid","dh":25.01,"gh":0.0,"rag":"g"}},{"type":"Feature","geometry":{"type":"Point","coordinates":[-1.39357,54.87301]},"properties":{"name":"Tunstall","dno":"Northern Powergrid","dh":10.89,"gh":0.0,"rag":"a"}},{"type":"Feature","geometry":{"type":"Point","coordinates":[-1.49691,54.91627]},"properties":{"name":"Usworth","dno":"Northern Powergrid","dh":6.51,"gh":23.9,"rag":"a"}},{"type":"Feature","geometry":{"type":"Point","coordinates":[-0.32,53.3954]},"properties":{"name":"Walesby","dno":"Northern Powergrid","dh":0.0,"gh":0.0,"rag":"r"}},{"type":"Feature","geometry":{"type":"Point","coordinates":[-1.53825,54.97632]},"properties":{"name":"Walker","dno":"Northern Powergrid","dh":9.08,"gh":15.36,"rag":"a"}},{"type":"Feature","geometry":{"type":"Point","coordinates":[-1.5302,54.95877]},"properties":{"name":"Wardley","dno":"Northern Powergrid","dh":11.5,"gh":20.75,"rag":"r"}},{"type":"Feature","geometry":{"type":"Point","coordinates":[-1.37829,53.38462]},"properties":{"name":"Waverley Business Park","dno":"Northern Powergrid","dh":20.49,"gh":40.68,"rag":"r"}},{"type":"Feature","geometry":{"type":"Point","coordinates":[-1.24165,53.7064]},"properties":{"name":"Weeland Road","dno":"Northern Powergrid","dh":2.97,"gh":0.0,"rag":"r"}},{"type":"Feature","geometry":{"type":"Point","coordinates":[-0.37491,53.73046]},"properties":{"name":"West Docks","dno":"Northern Powergrid","dh":11.57,"gh":0.0,"rag":"g"}},{"type":"Feature","geometry":{"type":"Point","coordinates":[-1.08886,53.4801]},"properties":{"name":"West End Lane","dno":"Northern Powergrid","dh":0.0,"gh":0.0,"rag":"r"}},{"type":"Feature","geometry":{"type":"Point","coordinates":[-1.37885,53.50117]},"properties":{"name":"West Melton / Thorpe Marsh","dno":"Northern Powergrid","dh":0.0,"gh":0.0,"rag":"r"}},{"type":"Feature","geometry":{"type":"Point","coordinates":[-1.37885,53.50117]},"properties":{"name":"West Melton Section 3","dno":"Northern Powergrid","dh":123.23,"gh":110.66,"rag":"r"}},{"type":"Feature","geometry":{"type":"Point","coordinates":[-1.83854,54.96487]},"properties":{"name":"West Wylam","dno":"Northern Powergrid","dh":0.0,"gh":0.0,"rag":"a"}},{"type":"Feature","geometry":{"type":"Point","coordinates":[-1.41927,54.9964]},"properties":{"name":"Westoe","dno":"Northern Powergrid","dh":12.46,"gh":15.26,"rag":"r"}},{"type":"Feature","geometry":{"type":"Point","coordinates":[-1.58965,53.47938]},"properties":{"name":"Wheatacre Road","dno":"Northern Powergrid","dh":0.0,"gh":2.23,"rag":"r"}},{"type":"Feature","geometry":{"type":"Point","coordinates":[-1.45921,53.83389]},"properties":{"name":"Whinmoor","dno":"Northern Powergrid","dh":52.5,"gh":0.0,"rag":"a"}},{"type":"Feature","geometry":{"type":"Point","coordinates":[-0.61265,54.47801]},"properties":{"name":"Whitby T2","dno":"Northern Powergrid","dh":12.33,"gh":0.0,"rag":"a"}},{"type":"Feature","geometry":{"type":"Point","coordinates":[-0.63523,54.48011]},"properties":{"name":"Whitby West T1","dno":"Northern Powergrid","dh":14.33,"gh":0.0,"rag":"a"}},{"type":"Feature","geometry":{"type":"Point","coordinates":[-1.5531,53.79483]},"properties":{"name":"Whitehall Road 4/5","dno":"Northern Powergrid","dh":11.76,"gh":20.6,"rag":"g"}},{"type":"Feature","geometry":{"type":"Point","coordinates":[-0.16946,53.47887]},"properties":{"name":"Wold Newton","dno":"Northern Powergrid","dh":0.0,"gh":0.0,"rag":"r"}},{"type":"Feature","geometry":{"type":"Point","coordinates":[-1.48586,53.66718]},"properties":{"name":"Woodcock Street","dno":"Northern Powergrid","dh":8.07,"gh":2.26,"rag":"r"}},{"type":"Feature","geometry":{"type":"Point","coordinates":[-1.53094,53.59685]},"properties":{"name":"Woolley","dno":"Northern Powergrid","dh":14.72,"gh":1.66,"rag":"r"}},{"type":"Feature","geometry":{"type":"Point","coordinates":[-1.52259,54.07492]},"properties":{"name":"Wormald Green 132/33Kv","dno":"Northern Powergrid","dh":17.15,"gh":0.0,"rag":"g"}},{"type":"Feature","geometry":{"type":"Point","coordinates":[-1.46168,53.51749]},"properties":{"name":"Worsbrough Park","dno":"Northern Powergrid","dh":10.32,"gh":0.0,"rag":"r"}},{"type":"Feature","geometry":{"type":"Point","coordinates":[-0.62371,54.1908]},"properties":{"name":"Yedingham","dno":"Northern Powergrid","dh":6.14,"gh":0.0,"rag":"a"}},{"type":"Feature","geometry":{"type":"Point","coordinates":[-1.24633,54.54776]},"properties":{"name":"Acklam","dno":"Northern Powergrid","dh":0.0,"gh":0.0,"rag":"a"}},{"type":"Feature","geometry":{"type":"Point","coordinates":[-0.33176,53.74494]},"properties":{"name":"Alfred Gelder Street","dno":"Northern Powergrid","dh":8.14,"gh":0.0,"rag":"g"}},{"type":"Feature","geometry":{"type":"Point","coordinates":[-1.53912,53.83067]},"properties":{"name":"Allerton Hill T2","dno":"Northern Powergrid","dh":0.0,"gh":0.55,"rag":"r"}},{"type":"Feature","geometry":{"type":"Point","coordinates":[-1.21414,54.6966]},"properties":{"name":"Amberton Road","dno":"Northern Powergrid","dh":11.27,"gh":0.0,"rag":"a"}},{"type":"Feature","geometry":{"type":"Point","coordinates":[-1.73209,54.8502]},"properties":{"name":"Annfield","dno":"Northern Powergrid","dh":0.0,"gh":0.0,"rag":"r"}},{"type":"Feature","geometry":{"type":"Point","coordinates":[-1.52995,53.79067]},"properties":{"name":"Armouries Drive","dno":"Northern Powergrid","dh":0.0,"gh":29.5,"rag":"g"}},{"type":"Feature","geometry":{"type":"Point","coordinates":[-1.47014,53.37567]},"properties":{"name":"Arundel Street","dno":"Northern Powergrid","dh":7.69,"gh":5.22,"rag":"r"}},{"type":"Feature","geometry":{"type":"Point","coordinates":[-1.42729,53.39091]},"properties":{"name":"Attercliffe","dno":"Northern Powergrid","dh":0.0,"gh":0.0,"rag":"r"}},{"type":"Feature","geometry":{"type":"Point","coordinates":[-1.5661,54.58686]},"properties":{"name":"Aycliffe Forrest","dno":"Northern Powergrid","dh":0.0,"gh":0.0,"rag":"g"}},{"type":"Feature","geometry":{"type":"Point","coordinates":[-1.56521,54.6114]},"properties":{"name":"Aycliffe Industrial","dno":"Northern Powergrid","dh":0.0,"gh":0.0,"rag":"r"}},{"type":"Feature","geometry":{"type":"Point","coordinates":[-1.77812,53.72128]},"properties":{"name":"Bailiff Bridge","dno":"Northern Powergrid","dh":15.46,"gh":2.02,"rag":"g"}},{"type":"Feature","geometry":{"type":"Point","coordinates":[-0.3621,53.6796]},"properties":{"name":"Barrow","dno":"Northern Powergrid","dh":0.0,"gh":0.0,"rag":"g"}},{"type":"Feature","geometry":{"type":"Point","coordinates":[-1.43456,53.81752]},"properties":{"name":"Barwick","dno":"Northern Powergrid","dh":10.39,"gh":0.0,"rag":"a"}},{"type":"Feature","geometry":{"type":"Point","coordinates":[-1.52365,53.32048]},"properties":{"name":"Baslow Road","dno":"Northern Powergrid","dh":13.87,"gh":0.0,"rag":"r"}},{"type":"Feature","geometry":{"type":"Point","coordinates":[-1.62714,53.70697]},"properties":{"name":"Batley","dno":"Northern Powergrid","dh":4.13,"gh":5.07,"rag":"g"}},{"type":"Feature","geometry":{"type":"Point","coordinates":[-1.58396,53.77588]},"properties":{"name":"Beeston Royds 132/33Kv","dno":"Northern Powergrid","dh":126.39,"gh":216.41,"rag":"g"}},{"type":"Feature","geometry":{"type":"Point","coordinates":[-1.58421,53.77645]},"properties":{"name":"Beeston Royds 33/11Kv","dno":"Northern Powergrid","dh":17.94,"gh":12.91,"rag":"a"}},{"type":"Feature","geometry":{"type":"Point","coordinates":[-1.44384,53.42615]},"properties":{"name":"Bellhouse Road","dno":"Northern Powergrid","dh":11.61,"gh":0.0,"rag":"r"}},{"type":"Feature","geometry":{"type":"Point","coordinates":[-0.16056,53.33817]},"properties":{"name":"Belmont Covert","dno":"Northern Powergrid","dh":0.0,"gh":0.0,"rag":"r"}},{"type":"Feature","geometry":{"type":"Point","coordinates":[-1.14172,53.55864]},"properties":{"name":"Bentley","dno":"Northern Powergrid","dh":0.0,"gh":0.0,"rag":"r"}},{"type":"Feature","geometry":{"type":"Point","coordinates":[-1.28387,54.61605]},"properties":{"name":"Billingham Marsh House","dno":"Northern Powergrid","dh":0.0,"gh":0.0,"rag":"a"}},{"type":"Feature","geometry":{"type":"Point","coordinates":[-1.47487,55.01551]},"properties":{"name":"Billy Mill","dno":"Northern Powergrid","dh":7.2,"gh":29.19,"rag":"r"}},{"type":"Feature","geometry":{"type":"Point","coordinates":[-1.84086,53.8529]},"properties":{"name":"Bingley 33/11Kv","dno":"Northern Powergrid","dh":10.62,"gh":14.72,"rag":"a"}},{"type":"Feature","geometry":{"type":"Point","coordinates":[-1.40232,53.41881]},"properties":{"name":"Blackburn Meadows B","dno":"Northern Powergrid","dh":0.0,"gh":0.0,"rag":"r"}},{"type":"Feature","geometry":{"type":"Point","coordinates":[-1.72409,54.98861]},"properties":{"name":"Blucher","dno":"Northern Powergrid","dh":37.05,"gh":0.0,"rag":"g"}},{"type":"Feature","geometry":{"type":"Point","coordinates":[-1.72409,54.98861]},"properties":{"name":"Blucher 33/11Kv","dno":"Northern Powergrid","dh":6.94,"gh":0.0,"rag":"r"}},{"type":"Feature","geometry":{"type":"Point","coordinates":[-1.47543,53.38696]},"properties":{"name":"Blue Boy Street","dno":"Northern Powergrid","dh":12.92,"gh":0.0,"rag":"a"}},{"type":"Feature","geometry":{"type":"Point","coordinates":[-1.52666,55.1414]},"properties":{"name":"Blyth 66Kv","dno":"Northern Powergrid","dh":0.0,"gh":0.0,"rag":"g"}},{"type":"Feature","geometry":{"type":"Point","coordinates":[-0.71368,53.43543]},"properties":{"name":"Blyton","dno":"Northern Powergrid","dh":0.0,"gh":0.0,"rag":"r"}},{"type":"Feature","geometry":{"type":"Point","coordinates":[-1.4517,54.93802]},"properties":{"name":"Boldon Downhill","dno":"Northern Powergrid","dh":17.45,"gh":26.33,"rag":"a"}},{"type":"Feature","geometry":{"type":"Point","coordinates":[-1.31817,54.55195]},"properties":{"name":"Bowesfield 66/11Kv","dno":"Northern Powergrid","dh":0.0,"gh":0.0,"rag":"a"}},{"type":"Feature","geometry":{"type":"Point","coordinates":[-1.32712,53.87164]},"properties":{"name":"Bramham","dno":"Northern Powergrid","dh":45.66,"gh":0.0,"rag":"a"}},{"type":"Feature","geometry":{"type":"Point","coordinates":[-1.5959,54.9726]},"properties":{"name":"Breamish Street","dno":"Northern Powergrid","dh":8.4,"gh":20.7,"rag":"a"}},{"type":"Feature","geometry":{"type":"Point","coordinates":[-0.20439,54.08908]},"properties":{"name":"Brett Street","dno":"Northern Powergrid","dh":5.12,"gh":0.0,"rag":"r"}},{"type":"Feature","geometry":{"type":"Point","coordinates":[-1.76769,53.69966]},"properties":{"name":"Brighouse 33/11Kv","dno":"Northern Powergrid","dh":4.97,"gh":13.29,"rag":"g"}},{"type":"Feature","geometry":{"type":"Point","coordinates":[-1.21048,53.56528]},"properties":{"name":"Brodsworth","dno":"Northern Powergrid","dh":0.0,"gh":0.0,"rag":"r"}},{"type":"Feature","geometry":{"type":"Point","coordinates":[-1.53262,53.78705]},"properties":{"name":"Brookfield Street","dno":"Northern Powergrid","dh":0.0,"gh":2.76,"rag":"g"}},{"type":"Feature","geometry":{"type":"Point","coordinates":[-0.10775,53.58188]},"properties":{"name":"Btp","dno":"Northern Powergrid","dh":0.0,"gh":0.0,"rag":"r"}},{"type":"Feature","geometry":{"type":"Point","coordinates":[-1.52853,53.80247]},"properties":{"name":"Burmantofts","dno":"Northern Powergrid","dh":0.0,"gh":26.26,"rag":"a"}},{"type":"Feature","geometry":{"type":"Point","coordinates":[-0.48944,54.13164]},"properties":{"name":"Butterwick","dno":"Northern Powergrid","dh":1.35,"gh":0.0,"rag":"r"}},{"type":"Feature","geometry":{"type":"Point","coordinates":[-0.32113,53.49955]},"properties":{"name":"Caistor","dno":"Northern Powergrid","dh":0.0,"gh":0.0,"rag":"r"}},{"type":"Feature","geometry":{"type":"Point","coordinates":[-1.655,53.67954]},"properties":{"name":"Calder Wharf","dno":"Northern Powergrid","dh":9.68,"gh":26.21,"rag":"r"}},{"type":"Feature","geometry":{"type":"Point","coordinates":[-1.71972,53.89144]},"properties":{"name":"Chevin End","dno":"Northern Powergrid","dh":21.9,"gh":31.48,"rag":"a"}},{"type":"Feature","geometry":{"type":"Point","coordinates":[-1.47811,55.0257]},"properties":{"name":"Chirton Grange","dno":"Northern Powergrid","dh":24.83,"gh":92.18,"rag":"g"}},{"type":"Feature","geometry":{"type":"Point","coordinates":[-0.24767,53.65478]},"properties":{"name":"Clough Lane","dno":"Northern Powergrid","dh":0.0,"gh":0.0,"rag":"g"}},{"type":"Feature","geometry":{"type":"Point","coordinates":[-1.81128,54.93914]},"properties":{"name":"Coalburns","dno":"Northern Powergrid","dh":0.0,"gh":0.0,"rag":"r"}},{"type":"Feature","geometry":{"type":"Point","coordinates":[-0.06926,53.55779]},"properties":{"name":"Convamore Road","dno":"Northern Powergrid","dh":0.0,"gh":0.0,"rag":"g"}},{"type":"Feature","geometry":{"type":"Point","coordinates":[-1.62245,54.9733]},"properties":{"name":"Corporation Street","dno":"Northern Powergrid","dh":11.48,"gh":0.0,"rag":"r"}},{"type":"Feature","geometry":{"type":"Point","coordinates":[-0.39305,53.75724]},"properties":{"name":"County Road North","dno":"Northern Powergrid","dh":6.65,"gh":0.0,"rag":"g"}},{"type":"Feature","geometry":{"type":"Point","coordinates":[-1.50492,54.43048]},"properties":{"name":"Cowton","dno":"Northern Powergrid","dh":0.0,"gh":0.0,"rag":"g"}},{"type":"Feature","geometry":{"type":"Point","coordinates":[-2.02868,54.04684]},"properties":{"name":"Cracoe","dno":"Northern Powergrid","dh":6.46,"gh":0.83,"rag":"r"}},{"type":"Feature","geometry":{"type":"Point","coordinates":[-1.60556,55.09191]},"properties":{"name":"Cramlington T2 T4","dno":"Northern Powergrid","dh":0.0,"gh":0.0,"rag":"a"}},{"type":"Feature","geometry":{"type":"Point","coordinates":[-0.41376,53.80118]},"properties":{"name":"Creyke Beck","dno":"Northern Powergrid","dh":316.51,"gh":0.0,"rag":"g"}},{"type":"Feature","geometry":{"type":"Point","coordinates":[-1.76835,53.79753]},"properties":{"name":"Crown Street","dno":"Northern Powergrid","dh":3.24,"gh":1.22,"rag":"a"}},{"type":"Feature","geometry":{"type":"Point","coordinates":[-1.74962,53.65387]},"properties":{"name":"Dalton","dno":"Northern Powergrid","dh":0.0,"gh":3.65,"rag":"g"}},{"type":"Feature","geometry":{"type":"Point","coordinates":[-1.54674,54.52755]},"properties":{"name":"Darlington 33/11Kv","dno":"Northern Powergrid","dh":0.0,"gh":0.0,"rag":"r"}},{"type":"Feature","geometry":{"type":"Point","coordinates":[-1.51792,54.51931]},"properties":{"name":"Darlington East","dno":"Northern Powergrid","dh":0.0,"gh":0.0,"rag":"a"}},{"type":"Feature","geometry":{"type":"Point","coordinates":[-1.5886,54.52972]},"properties":{"name":"Darlington West","dno":"Northern Powergrid","dh":0.0,"gh":0.0,"rag":"r"}},{"type":"Feature","geometry":{"type":"Point","coordinates":[-1.7473,53.67247]},"properties":{"name":"Deighton","dno":"Northern Powergrid","dh":5.28,"gh":27.04,"rag":"g"}},{"type":"Feature","geometry":{"type":"Point","coordinates":[-1.59413,53.63329]},"properties":{"name":"Denby Grange","dno":"Northern Powergrid","dh":4.97,"gh":0.7,"rag":"g"}},{"type":"Feature","geometry":{"type":"Point","coordinates":[-1.66945,55.44069]},"properties":{"name":"Denwick","dno":"Northern Powergrid","dh":7.49,"gh":0.0,"rag":"a"}},{"type":"Feature","geometry":{"type":"Point","coordinates":[-1.82483,53.64094]},"properties":{"name":"Dowker Street","dno":"Northern Powergrid","dh":14.78,"gh":1.85,"rag":"g"}},{"type":"Feature","geometry":{"type":"Point","coordinates":[-1.00206,53.72971]},"properties":{"name":"Drax Primary","dno":"Northern Powergrid","dh":4.4,"gh":0.0,"rag":"g"}},{"type":"Feature","geometry":{"type":"Point","coordinates":[-0.41648,53.99942]},"properties":{"name":"Driffield","dno":"Northern Powergrid","dh":6.18,"gh":0.0,"rag":"r"}},{"type":"Feature","geometry":{"type":"Point","coordinates":[-1.53368,53.91847]},"properties":{"name":"Dunkeswick","dno":"Northern Powergrid","dh":2.17,"gh":0.0,"rag":"a"}},{"type":"Feature","geometry":{"type":"Point","coordinates":[-1.66088,54.95986]},"properties":{"name":"Dunston","dno":"Northern Powergrid","dh":37.05,"gh":0.0,"rag":"g"}},{"type":"Feature","geometry":{"type":"Point","coordinates":[-1.66088,54.95986]},"properties":{"name":"Dunston 66/20Kv","dno":"Northern Powergrid","dh":13.93,"gh":0.0,"rag":"r"}},{"type":"Feature","geometry":{"type":"Point","coordinates":[-2.08018,54.74196]},"properties":{"name":"Eastgate Cement","dno":"Northern Powergrid","dh":17.32,"gh":0.0,"rag":"r"}},{"type":"Feature","geometry":{"type":"Point","coordinates":[-0.41751,53.73526]},"properties":{"name":"Elgar Road","dno":"Northern Powergrid","dh":6.94,"gh":0.0,"rag":"g"}},{"type":"Feature","geometry":{"type":"Point","coordinates":[-0.13957,53.73859]},"properties":{"name":"Ellifoot Lane","dno":"Northern Powergrid","dh":0.0,"gh":0.0,"rag":"g"}},{"type":"Feature","geometry":{"type":"Point","coordinates":[-1.47476,53.37357]},"properties":{"name":"Ellin Street 1/3","dno":"Northern Powergrid","dh":23.79,"gh":5.4,"rag":"r"}},{"type":"Feature","geometry":{"type":"Point","coordinates":[-1.47476,53.37357]},"properties":{"name":"Ellin Street 2","dno":"Northern Powergrid","dh":28.18,"gh":2.0,"rag":"r"}},{"type":"Feature","geometry":{"type":"Point","coordinates":[-1.41313,53.49646]},"properties":{"name":"Elsecar","dno":"Northern Powergrid","dh":12.03,"gh":0.0,"rag":"r"}},{"type":"Feature","geometry":{"type":"Point","coordinates":[-0.94894,53.92443]},"properties":{"name":"Elvington","dno":"Northern Powergrid","dh":9.03,"gh":0.0,"rag":"a"}},{"type":"Feature","geometry":{"type":"Point","coordinates":[-1.61554,53.79042]},"properties":{"name":"Farnley Crescent","dno":"Northern Powergrid","dh":12.54,"gh":2.69,"rag":"g"}},{"type":"Feature","geometry":{"type":"Point","coordinates":[-1.2289,53.80382]},"properties":{"name":"Fenton Lane","dno":"Northern Powergrid","dh":13.64,"gh":0.0,"rag":"a"}},{"type":"Feature","geometry":{"type":"Point","coordinates":[-1.27084,53.71888]},"properties":{"name":"Ferrybridge A","dno":"Northern Powergrid","dh":36.79,"gh":0.0,"rag":"g"}},{"type":"Feature","geometry":{"type":"Point","coordinates":[-1.27084,53.71888]},"properties":{"name":"Ferrybridge A 11Kv","dno":"Northern Powergrid","dh":13.99,"gh":0.0,"rag":"r"}},{"type":"Feature","geometry":{"type":"Point","coordinates":[-1.44054,53.58182]},"properties":{"name":"Fish Dam Lane","dno":"Northern Powergrid","dh":14.24,"gh":2.87,"rag":"r"}},{"type":"Feature","geometry":{"type":"Point","coordinates":[-1.43475,54.6947]},"properties":{"name":"Fishburn","dno":"Northern Powergrid","dh":13.07,"gh":0.0,"rag":"r"}},{"type":"Feature","geometry":{"type":"Point","coordinates":[-0.69498,53.61872]},"properties":{"name":"Flixborough","dno":"Northern Powergrid","dh":0.0,"gh":0.0,"rag":"r"}},{"type":"Feature","geometry":{"type":"Point","coordinates":[-1.78827,53.63844]},"properties":{"name":"Folly Hall","dno":"Northern Powergrid","dh":0.0,"gh":1.94,"rag":"g"}},{"type":"Feature","geometry":{"type":"Point","coordinates":[-1.07235,53.9613]},"properties":{"name":"Foss Islands","dno":"Northern Powergrid","dh":5.33,"gh":0.0,"rag":"g"}},{"type":"Feature","geometry":{"type":"Point","coordinates":[-1.89565,53.74929]},"properties":{"name":"Furness Avenue","dno":"Northern Powergrid","dh":11.65,"gh":2.45,"rag":"a"}},{"type":"Feature","geometry":{"type":"Point","coordinates":[-1.12693,53.94917]},"properties":{"name":"Gale Lane","dno":"Northern Powergrid","dh":13.83,"gh":0.0,"rag":"g"}},{"type":"Feature","geometry":{"type":"Point","coordinates":[-1.58457,54.96572]},"properties":{"name":"Gateshead East","dno":"Northern Powergrid","dh":25.2,"gh":34.98,"rag":"a"}},{"type":"Feature","geometry":{"type":"Point","coordinates":[-0.53253,53.72118]},"properties":{"name":"Gibson Lane","dno":"Northern Powergrid","dh":0.84,"gh":0.0,"rag":"g"}},{"type":"Feature","geometry":{"type":"Point","coordinates":[-1.79003,53.79565]},"properties":{"name":"Girlington","dno":"Northern Powergrid","dh":57.42,"gh":49.43,"rag":"a"}},{"type":"Feature","geometry":{"type":"Point","coordinates":[-1.44359,53.34692]},"properties":{"name":"Gleadless Valley","dno":"Northern Powergrid","dh":15.42,"gh":2.28,"rag":"r"}},{"type":"Feature","geometry":{"type":"Point","coordinates":[-0.8865,53.70087]},"properties":{"name":"Goole","dno":"Northern Powergrid","dh":7.46,"gh":0.0,"rag":"a"}},{"type":"Feature","geometry":{"type":"Point","coordinates":[-0.12841,53.575]},"properties":{"name":"Great Coates","dno":"Northern Powergrid","dh":0.0,"gh":0.0,"rag":"a"}},{"type":"Feature","geometry":{"type":"Point","coordinates":[-0.07557,53.57611]},"properties":{"name":"Grimsby Docks","dno":"Northern Powergrid","dh":0.0,"gh":0.0,"rag":"r"}},{"type":"Feature","geometry":{"type":"Point","coordinates":[-1.78739,53.64327]},"properties":{"name":"Grove Street","dno":"Northern Powergrid","dh":12.88,"gh":13.39,"rag":"g"}},{"type":"Feature","geometry":{"type":"Point","coordinates":[-1.8576,53.72609]},"properties":{"name":"Halifax 132/33Kv","dno":"Northern Powergrid","dh":41.2,"gh":10.07,"rag":"g"}},{"type":"Feature","geometry":{"type":"Point","coordinates":[-1.85791,53.72646]},"properties":{"name":"Halifax 33/11Kv","dno":"Northern Powergrid","dh":21.34,"gh":10.07,"rag":"g"}},{"type":"Feature","geometry":{"type":"Point","coordinates":[-1.86774,53.83403]},"properties":{"name":"Harden","dno":"Northern Powergrid","dh":4.07,"gh":4.27,"rag":"a"}},{"type":"Feature","geometry":{"type":"Point","coordinates":[-1.91625,54.55371]},"properties":{"name":"Harmire Bridge","dno":"Northern Powergrid","dh":14.38,"gh":0.0,"rag":"a"}},{"type":"Feature","geometry":{"type":"Point","coordinates":[-1.54028,54.8842]},"properties":{"name":"Harraton Direct","dno":"Northern Powergrid","dh":0.0,"gh":0.0,"rag":"r"}},{"type":"Feature","geometry":{"type":"Point","coordinates":[-1.56342,53.98808]},"properties":{"name":"Harrogate West","dno":"Northern Powergrid","dh":18.82,"gh":0.0,"rag":"g"}},{"type":"Feature","geometry":{"type":"Point","coordinates":[-1.291,54.70218]},"properties":{"name":"Hartmoor","dno":"Northern Powergrid","dh":38.75,"gh":0.0,"rag":"g"}},{"type":"Feature","geometry":{"type":"Point","coordinates":[-1.291,54.70218]},"properties":{"name":"Hartmoor 66/20Kv","dno":"Northern Powergrid","dh":8.97,"gh":0.0,"rag":"a"}},{"type":"Feature","geometry":{"type":"Point","coordinates":[-1.93884,53.83834]},"properties":{"name":"Haworth 1","dno":"Northern Powergrid","dh":24.77,"gh":14.72,"rag":"a"}},{"type":"Feature","geometry":{"type":"Point","coordinates":[-1.40163,54.80624]},"properties":{"name":"Hawthorn Pit Grid","dno":"Northern Powergrid","dh":105.12,"gh":0.0,"rag":"g"}},{"type":"Feature","geometry":{"type":"Point","coordinates":[-1.07538,53.97669]},"properties":{"name":"Haxby Road T2 T3","dno":"Northern Powergrid","dh":3.73,"gh":0.0,"rag":"a"}},{"type":"Feature","geometry":{"type":"Point","coordinates":[-0.81289,53.48544]},"properties":{"name":"Haxey","dno":"Northern Powergrid","dh":0.0,"gh":0.0,"rag":"r"}},{"type":"Feature","geometry":{"type":"Point","coordinates":[-1.48721,54.9588]},"properties":{"name":"Hedworth","dno":"Northern Powergrid","dh":13.5,"gh":1.48,"rag":"a"}},{"type":"Feature","geometry":{"type":"Point","coordinates":[-1.37046,53.63547]},"properties":{"name":"Hemsworth","dno":"Northern Powergrid","dh":1.65,"gh":0.0,"rag":"g"}},{"type":"Feature","geometry":{"type":"Point","coordinates":[-0.796,53.80145]},"properties":{"name":"Holme Upon Spalding Moor","dno":"Northern Powergrid","dh":2.47,"gh":0.0,"rag":"r"}},{"type":"Feature","geometry":{"type":"Point","coordinates":[-1.87531,53.75066]},"properties":{"name":"Holmfield","dno":"Northern Powergrid","dh":61.52,"gh":49.43,"rag":"a"}},{"type":"Feature","geometry":{"type":"Point","coordinates":[-1.75313,53.33943]},"properties":{"name":"Hope","dno":"Northern Powergrid","dh":18.38,"gh":1.69,"rag":"r"}},{"type":"Feature","geometry":{"type":"Point","coordinates":[-1.4818,54.99097]},"properties":{"name":"Howdon","dno":"Northern Powergrid","dh":7.49,"gh":0.0,"rag":"r"}},{"type":"Feature","geometry":{"type":"Point","coordinates":[-0.25444,53.74878]},"properties":{"name":"Hull East 132/33Kv","dno":"Northern Powergrid","dh":0.0,"gh":0.0,"rag":"g"}},{"type":"Feature","geometry":{"type":"Point","coordinates":[-0.2549,53.74866]},"properties":{"name":"Hull East 33/11Kv","dno":"Northern Powergrid","dh":0.0,"gh":0.0,"rag":"g"}},{"type":"Feature","geometry":{"type":"Point","coordinates":[-0.21514,53.63338]},"properties":{"name":"Humber Road","dno":"Northern Powergrid","dh":0.0,"gh":0.0,"rag":"g"}},{"type":"Feature","geometry":{"type":"Point","coordinates":[-1.12168,53.53827]},"properties":{"name":"Ici Fibres","dno":"Northern Powergrid","dh":0.0,"gh":0.0,"rag":"r"}},{"type":"Feature","geometry":{"type":"Point","coordinates":[-1.73464,53.82577]},"properties":{"name":"Idle","dno":"Northern Powergrid","dh":0.0,"gh":3.04,"rag":"a"}},{"type":"Feature","geometry":{"type":"Point","coordinates":[-1.61018,53.83996]},"properties":{"name":"Iveson House","dno":"Northern Powergrid","dh":10.82,"gh":26.06,"rag":"g"}},{"type":"Feature","geometry":{"type":"Point","coordinates":[-2.46208,55.17559]},"properties":{"name":"Kielder","dno":"Northern Powergrid","dh":null,"gh":4.0,"rag":"r"}},{"type":"Feature","geometry":{"type":"Point","coordinates":[-0.27858,53.74747]},"properties":{"name":"King George Dock","dno":"Northern Powergrid","dh":0.0,"gh":0.0,"rag":"g"}},{"type":"Feature","geometry":{"type":"Point","coordinates":[-0.93457,54.25247]},"properties":{"name":"Kirbymoorside","dno":"Northern Powergrid","dh":12.49,"gh":0.0,"rag":"a"}},{"type":"Feature","geometry":{"type":"Point","coordinates":[-1.76253,53.85249]},"properties":{"name":"Kirk Drive","dno":"Northern Powergrid","dh":12.1,"gh":2.08,"rag":"a"}},{"type":"Feature","geometry":{"type":"Point","coordinates":[-1.27701,53.71977]},"properties":{"name":"Kirkhaw Lane","dno":"Northern Powergrid","dh":54.69,"gh":0.0,"rag":"a"}},{"type":"Feature","geometry":{"type":"Point","coordinates":[-0.77434,53.39082]},"properties":{"name":"Lea Road","dno":"Northern Powergrid","dh":0.0,"gh":0.0,"rag":"r"}},{"type":"Feature","geometry":{"type":"Point","coordinates":[-1.55224,54.93772]},"properties":{"name":"Leam Central","dno":"Northern Powergrid","dh":7.3,"gh":8.0,"rag":"a"}},{"type":"Feature","geometry":{"type":"Point","coordinates":[-1.35551,53.74955]},"properties":{"name":"Ledston","dno":"Northern Powergrid","dh":11.68,"gh":0.0,"rag":"g"}},{"type":"Feature","geometry":{"type":"Point","coordinates":[-1.69417,53.70799]},"properties":{"name":"Liversedge","dno":"Northern Powergrid","dh":0.0,"gh":1.29,"rag":"g"}},{"type":"Feature","geometry":{"type":"Point","coordinates":[-1.52335,53.78031]},"properties":{"name":"Low Road","dno":"Northern Powergrid","dh":0.0,"gh":29.5,"rag":"g"}},{"type":"Feature","geometry":{"type":"Point","coordinates":[-1.83075,53.6916]},"properties":{"name":"Lowfields","dno":"Northern Powergrid","dh":14.58,"gh":19.7,"rag":"g"}},{"type":"Feature","geometry":{"type":"Point","coordinates":[-0.79678,54.14193]},"properties":{"name":"Malton","dno":"Northern Powergrid","dh":7.6,"gh":0.0,"rag":"a"}},{"type":"Feature","geometry":{"type":"Point","coordinates":[-1.7546,53.7893]},"properties":{"name":"Manchester Road","dno":"Northern Powergrid","dh":0.0,"gh":3.06,"rag":"a"}},{"type":"Feature","geometry":{"type":"Point","coordinates":[-0.18201,54.10365]},"properties":{"name":"Martongate","dno":"Northern Powergrid","dh":2.05,"gh":0.0,"rag":"r"}},{"type":"Feature","geometry":{"type":"Point","coordinates":[-1.29817,54.53983]},"properties":{"name":"Millbank Lane","dno":"Northern Powergrid","dh":0.0,"gh":0.0,"rag":"r"}},{"type":"Feature","geometry":{"type":"Point","coordinates":[-1.57946,53.68515]},"properties":{"name":"Milton Place","dno":"Northern Powergrid","dh":0.0,"gh":26.68,"rag":"g"}},{"type":"Feature","geometry":{"type":"Point","coordinates":[-1.19824,54.01084]},"properties":{"name":"Moor Monkton Pumps","dno":"Northern Powergrid","dh":3.28,"gh":0.0,"rag":"a"}},{"type":"Feature","geometry":{"type":"Point","coordinates":[-1.72212,53.8142]},"properties":{"name":"Moorside Road","dno":"Northern Powergrid","dh":0.0,"gh":26.65,"rag":"a"}},{"type":"Feature","geometry":{"type":"Point","coordinates":[-1.64348,53.7383]},"properties":{"name":"Nab Lane","dno":"Northern Powergrid","dh":0.0,"gh":14.49,"rag":"g"}},{"type":"Feature","geometry":{"type":"Point","coordinates":[-0.69702,53.76591]},"properties":{"name":"Newport 2","dno":"Northern Powergrid","dh":20.0,"gh":0.0,"rag":"a"}},{"type":"Feature","geometry":{"type":"Point","coordinates":[-1.37634,53.79286]},"properties":{"name":"Ninelands Lane","dno":"Northern Powergrid","dh":9.6,"gh":0.0,"rag":"a"}},{"type":"Feature","geometry":{"type":"Point","coordinates":[-1.44848,53.36608]},"properties":{"name":"Norfolk Park","dno":"Northern Powergrid","dh":15.82,"gh":2.42,"rag":"r"}},{"type":"Feature","geometry":{"type":"Point","coordinates":[-1.36267,54.59229]},"properties":{"name":"Norton","dno":"Northern Powergrid","dh":0.0,"gh":0.0,"rag":"g"}},{"type":"Feature","geometry":{"type":"Point","coordinates":[-1.36267,54.59229]},"properties":{"name":"Norton 132/11Kv Direct","dno":"Northern Powergrid","dh":0.0,"gh":0.0,"rag":"a"}},{"type":"Feature","geometry":{"type":"Point","coordinates":[-1.47165,53.34862]},"properties":{"name":"Norton Lees","dno":"Northern Powergrid","dh":52.0,"gh":135.0,"rag":"r"}},{"type":"Feature","geometry":{"type":"Point","coordinates":[-1.03113,53.78793]},"properties":{"name":"Osgodby 3/4","dno":"Northern Powergrid","dh":62.55,"gh":0.0,"rag":"g"}},{"type":"Feature","geometry":{"type":"Point","coordinates":[-1.42319,54.90925]},"properties":{"name":"Pallion Trading","dno":"Northern Powergrid","dh":4.61,"gh":10.86,"rag":"a"}},{"type":"Feature","geometry":{"type":"Point","coordinates":[-1.45894,53.38191]},"properties":{"name":"Park Hill","dno":"Northern Powergrid","dh":13.27,"gh":3.33,"rag":"r"}},{"type":"Feature","geometry":{"type":"Point","coordinates":[-0.42265,53.68822]},"properties":{"name":"Pasture Road South","dno":"Northern Powergrid","dh":0.0,"gh":0.0,"rag":"r"}},{"type":"Feature","geometry":{"type":"Point","coordinates":[-0.06898,53.69891]},"properties":{"name":"Patrington Road","dno":"Northern Powergrid","dh":0.0,"gh":0.0,"rag":"r"}},{"type":"Feature","geometry":{"type":"Point","coordinates":[-1.48837,53.39708]},"properties":{"name":"Penistone Road","dno":"Northern Powergrid","dh":11.41,"gh":1.63,"rag":"a"}},{"type":"Feature","geometry":{"type":"Point","coordinates":[-1.4445,53.40104]},"properties":{"name":"Pitsmoor 3/4","dno":"Northern Powergrid","dh":72.44,"gh":0.0,"rag":"r"}},{"type":"Feature","geometry":{"type":"Point","coordinates":[-1.06007,53.68078]},"properties":{"name":"Pollington","dno":"Northern Powergrid","dh":4.11,"gh":0.0,"rag":"a"}},{"type":"Feature","geometry":{"type":"Point","coordinates":[-1.50988,53.78753]},"properties":{"name":"Pontefract Lane 1/2","dno":"Northern Powergrid","dh":0.0,"gh":0.77,"rag":"a"}},{"type":"Feature","geometry":{"type":"Point","coordinates":[-1.13181,53.97461]},"properties":{"name":"Poppleton","dno":"Northern Powergrid","dh":66.75,"gh":0.0,"rag":"g"}},{"type":"Feature","geometry":{"type":"Point","coordinates":[-1.59178,54.79962]},"properties":{"name":"Potter House","dno":"Northern Powergrid","dh":19.87,"gh":0.0,"rag":"g"}},{"type":"Feature","geometry":{"type":"Point","coordinates":[-1.83976,53.64772]},"properties":{"name":"Prospect Road","dno":"Northern Powergrid","dh":11.36,"gh":2.21,"rag":"g"}},{"type":"Feature","geometry":{"type":"Point","coordinates":[-1.82904,53.761]},"properties":{"name":"Queensbury","dno":"Northern Powergrid","dh":10.25,"gh":26.73,"rag":"a"}},{"type":"Feature","geometry":{"type":"Point","coordinates":[-1.59523,54.90909]},"properties":{"name":"Ravensworth","dno":"Northern Powergrid","dh":0.0,"gh":0.0,"rag":"r"}},{"type":"Feature","geometry":{"type":"Point","coordinates":[-1.10651,53.97973]},"properties":{"name":"Rawcliffe Lane","dno":"Northern Powergrid","dh":5.51,"gh":0.0,"rag":"a"}},{"type":"Feature","geometry":{"type":"Point","coordinates":[-1.35642,53.43626]},"properties":{"name":"Rawmarsh Road 3_4 Direct","dno":"Northern Powergrid","dh":0.0,"gh":0.0,"rag":"r"}},{"type":"Feature","geometry":{"type":"Point","coordinates":[-1.49532,53.4114]},"properties":{"name":"Rawson Spring Road","dno":"Northern Powergrid","dh":7.31,"gh":3.43,"rag":"a"}},{"type":"Feature","geometry":{"type":"Point","coordinates":[-1.0622,54.59998]},"properties":{"name":"Redcar","dno":"Northern Powergrid","dh":12.7,"gh":0.0,"rag":"a"}},{"type":"Feature","geometry":{"type":"Point","coordinates":[-1.08675,53.55454]},"properties":{"name":"Rockware","dno":"Northern Powergrid","dh":0.0,"gh":0.0,"rag":"r"}},{"type":"Feature","geometry":{"type":"Point","coordinates":[-1.66496,53.82156]},"properties":{"name":"Rodley","dno":"Northern Powergrid","dh":0.0,"gh":43.68,"rag":"g"}},{"type":"Feature","geometry":{"type":"Point","coordinates":[-1.50826,53.84718]},"properties":{"name":"Roman Avenue","dno":"Northern Powergrid","dh":11.66,"gh":0.0,"rag":"a"}},{"type":"Feature","geometry":{"type":"Point","coordinates":[-1.47525,53.74637]},"properties":{"name":"Royds Lane","dno":"Northern Powergrid","dh":0.0,"gh":2.5,"rag":"g"}},{"type":"Feature","geometry":{"type":"Point","coordinates":[-1.77236,53.65106]},"properties":{"name":"Saint Andrews Road 132/33Kv","dno":"Northern Powergrid","dh":0.0,"gh":43.68,"rag":"g"}},{"type":"Feature","geometry":{"type":"Point","coordinates":[-0.23796,53.74263]},"properties":{"name":"Saltend North","dno":"Northern Powergrid","dh":0.0,"gh":0.0,"rag":"g"}},{"type":"Feature","geometry":{"type":"Point","coordinates":[-0.89872,53.9179]},"properties":{"name":"Sandhill Lane","dno":"Northern Powergrid","dh":4.65,"gh":0.0,"rag":"r"}},{"type":"Feature","geometry":{"type":"Point","coordinates":[-0.59481,53.59613]},"properties":{"name":"Santon","dno":"Northern Powergrid","dh":0.0,"gh":0.0,"rag":"r"}},{"type":"Feature","geometry":{"type":"Point","coordinates":[-1.7575,53.56291]},"properties":{"name":"Scholes","dno":"Northern Powergrid","dh":14.91,"gh":22.37,"rag":"g"}},{"type":"Feature","geometry":{"type":"Point","coordinates":[-1.6224,53.58897]},"properties":{"name":"Scissett","dno":"Northern Powergrid","dh":7.45,"gh":3.17,"rag":"r"}},{"type":"Feature","geometry":{"type":"Point","coordinates":[-0.34453,53.76271]},"properties":{"name":"Sculcoates A Direct","dno":"Northern Powergrid","dh":12.25,"gh":0.0,"rag":"g"}},{"type":"Feature","geometry":{"type":"Point","coordinates":[-0.62272,53.57534]},"properties":{"name":"Scunthorpe South","dno":"Northern Powergrid","dh":0.0,"gh":0.0,"rag":"r"}},{"type":"Feature","geometry":{"type":"Point","coordinates":[-0.22114,53.90533]},"properties":{"name":"Seaton","dno":"Northern Powergrid","dh":2.93,"gh":0.0,"rag":"r"}},{"type":"Feature","geometry":{"type":"Point","coordinates":[-1.06405,53.769]},"properties":{"name":"Selby","dno":"Northern Powergrid","dh":5.48,"gh":0.0,"rag":"g"}},{"type":"Feature","geometry":{"type":"Point","coordinates":[-1.40666,53.40285]},"properties":{"name":"Shepcote Tinsley","dno":"Northern Powergrid","dh":23.77,"gh":30.36,"rag":"r"}},{"type":"Feature","geometry":{"type":"Point","coordinates":[-1.2203,53.79265]},"properties":{"name":"Sherburn","dno":"Northern Powergrid","dh":9.95,"gh":0.0,"rag":"a"}},{"type":"Feature","geometry":{"type":"Point","coordinates":[-1.42369,53.39069]},"properties":{"name":"Shirland Lane","dno":"Northern Powergrid","dh":0.0,"gh":0.0,"rag":"r"}},{"type":"Feature","geometry":{"type":"Point","coordinates":[-1.35584,54.76543]},"properties":{"name":"Shotton","dno":"Northern Powergrid","dh":11.13,"gh":0.0,"rag":"a"}},{"type":"Feature","geometry":{"type":"Point","coordinates":[-1.47197,53.3845]},"properties":{"name":"Silver Street","dno":"Northern Powergrid","dh":15.95,"gh":2.3,"rag":"r"}},{"type":"Feature","geometry":{"type":"Point","coordinates":[-1.4641,54.97351]},"properties":{"name":"Simonside","dno":"Northern Powergrid","dh":12.57,"gh":14.95,"rag":"a"}},{"type":"Feature","geometry":{"type":"Point","coordinates":[-1.49385,53.77853]},"properties":{"name":"Skelton Grange","dno":"Northern Powergrid","dh":0.0,"gh":43.68,"rag":"g"}},{"type":"Feature","geometry":{"type":"Point","coordinates":[-0.57407,53.72522]},"properties":{"name":"Skillings Lane","dno":"Northern Powergrid","dh":7.47,"gh":0.0,"rag":"g"}},{"type":"Feature","geometry":{"type":"Point","coordinates":[-1.90339,53.61427]},"properties":{"name":"Slaithwaite","dno":"Northern Powergrid","dh":14.75,"gh":3.02,"rag":"g"}},{"type":"Feature","geometry":{"type":"Point","coordinates":[-1.5331,53.37244]},"properties":{"name":"Snaithing Park Road","dno":"Northern Powergrid","dh":10.5,"gh":3.7,"rag":"r"}},{"type":"Feature","geometry":{"type":"Point","coordinates":[-1.7219,53.73194]},"properties":{"name":"Snelsins Lane","dno":"Northern Powergrid","dh":13.24,"gh":0.0,"rag":"g"}},{"type":"Feature","geometry":{"type":"Point","coordinates":[-0.53184,53.67134]},"properties":{"name":"South Ferriby","dno":"Northern Powergrid","dh":0.0,"gh":0.0,"rag":"r"}},{"type":"Feature","geometry":{"type":"Point","coordinates":[-1.91285,53.85812]},"properties":{"name":"South Street","dno":"Northern Powergrid","dh":14.16,"gh":13.37,"rag":"a"}},{"type":"Feature","geometry":{"type":"Point","coordinates":[-0.66127,53.86181]},"properties":{"name":"Southgate","dno":"Northern Powergrid","dh":2.3,"gh":0.0,"rag":"r"}},{"type":"Feature","geometry":{"type":"Point","coordinates":[-1.92444,53.70887]},"properties":{"name":"Sowerby Bridge 132/33Kv","dno":"Northern Powergrid","dh":45.48,"gh":64.7,"rag":"r"}},{"type":"Feature","geometry":{"type":"Point","coordinates":[-2.60665,55.02608]},"properties":{"name":"Spadeadam 20Kv","dno":"Northern Powergrid","dh":null,"gh":8.0,"rag":"g"}},{"type":"Feature","geometry":{"type":"Point","coordinates":[-1.70562,53.72187]},"properties":{"name":"Spenborough","dno":"Northern Powergrid","dh":18.27,"gh":33.09,"rag":"g"}},{"type":"Feature","geometry":{"type":"Point","coordinates":[-1.18914,54.572]},"properties":{"name":"Spencerbeck","dno":"Northern Powergrid","dh":14.53,"gh":0.0,"rag":"r"}},{"type":"Feature","geometry":{"type":"Point","coordinates":[-1.55666,54.70638]},"properties":{"name":"Spennymoor Gsp","dno":"Northern Powergrid","dh":127.96,"gh":0.0,"rag":"g"}},{"type":"Feature","geometry":{"type":"Point","coordinates":[-1.01963,53.59457]},"properties":{"name":"Stainforth","dno":"Northern Powergrid","dh":0.0,"gh":0.0,"rag":"r"}},{"type":"Feature","geometry":{"type":"Point","coordinates":[-1.44051,53.55033]},"properties":{"name":"Stairfoot","dno":"Northern Powergrid","dh":11.85,"gh":3.06,"rag":"r"}},{"type":"Feature","geometry":{"type":"Point","coordinates":[-1.4652,53.3883]},"properties":{"name":"Stanley Street","dno":"Northern Powergrid","dh":12.52,"gh":0.0,"rag":"r"}},{"type":"Feature","geometry":{"type":"Point","coordinates":[-1.51267,53.39851]},"properties":{"name":"Stannington Road","dno":"Northern Powergrid","dh":8.96,"gh":2.93,"rag":"a"}},{"type":"Feature","geometry":{"type":"Point","coordinates":[-0.64201,53.58926]},"properties":{"name":"Station Road","dno":"Northern Powergrid","dh":0.0,"gh":0.0,"rag":"r"}},{"type":"Feature","geometry":{"type":"Point","coordinates":[-1.74986,53.76676]},"properties":{"name":"Staygate","dno":"Northern Powergrid","dh":0.0,"gh":43.68,"rag":"g"}},{"type":"Feature","geometry":{"type":"Point","coordinates":[-1.49477,53.76518]},"properties":{"name":"Stourton 132/11Kv Direct","dno":"Northern Powergrid","dh":0.0,"gh":13.97,"rag":"g"}},{"type":"Feature","geometry":{"type":"Point","coordinates":[-1.39353,54.91159]},"properties":{"name":"Sunderland T1 T2","dno":"Northern Powergrid","dh":2.92,"gh":23.89,"rag":"a"}},{"type":"Feature","geometry":{"type":"Point","coordinates":[-1.39353,54.91159]},"properties":{"name":"Sunderland T5 T6","dno":"Northern Powergrid","dh":27.23,"gh":30.59,"rag":"a"}},{"type":"Feature","geometry":{"type":"Point","coordinates":[-1.26446,53.87783]},"properties":{"name":"Tadcaster","dno":"Northern Powergrid","dh":8.81,"gh":0.0,"rag":"a"}},{"type":"Feature","geometry":{"type":"Point","coordinates":[-1.17254,54.60877]},"properties":{"name":"Tees Industrial T1 T2","dno":"Northern Powergrid","dh":6.7,"gh":0.0,"rag":"a"}},{"type":"Feature","geometry":{"type":"Point","coordinates":[-1.38914,54.23016]},"properties":{"name":"Thirsk","dno":"Northern Powergrid","dh":0.0,"gh":0.0,"rag":"a"}},{"type":"Feature","geometry":{"type":"Point","coordinates":[-2.10328,53.70877]},"properties":{"name":"Todmorden","dno":"Northern Powergrid","dh":11.46,"gh":25.5,"rag":"r"}},{"type":"Feature","geometry":{"type":"Point","coordinates":[-1.79109,53.81042]},"properties":{"name":"Toller Lane","dno":"Northern Powergrid","dh":13.57,"gh":28.22,"rag":"a"}},{"type":"Feature","geometry":{"type":"Point","coordinates":[-1.49934,55.02469]},"properties":{"name":"Tynemouth","dno":"Northern Powergrid","dh":68.88,"gh":111.5,"rag":"g"}},{"type":"Feature","geometry":{"type":"Point","coordinates":[-1.43418,55.01269]},"properties":{"name":"Tynemouth Central","dno":"Northern Powergrid","dh":11.6,"gh":25.7,"rag":"r"}},{"type":"Feature","geometry":{"type":"Point","coordinates":[-1.66778,53.80386]},"properties":{"name":"Varley Street","dno":"Northern Powergrid","dh":0.0,"gh":26.68,"rag":"g"}},{"type":"Feature","geometry":{"type":"Point","coordinates":[-1.48178,53.381]},"properties":{"name":"Victoria Street","dno":"Northern Powergrid","dh":12.35,"gh":4.52,"rag":"r"}},{"type":"Feature","geometry":{"type":"Point","coordinates":[-1.51021,53.66624]},"properties":{"name":"Wakefield Monckton Road","dno":"Northern Powergrid","dh":63.36,"gh":110.66,"rag":"r"}},{"type":"Feature","geometry":{"type":"Point","coordinates":[-1.49939,53.70586]},"properties":{"name":"Wakefield North","dno":"Northern Powergrid","dh":0.0,"gh":43.68,"rag":"g"}},{"type":"Feature","geometry":{"type":"Point","coordinates":[-1.5456,55.15646]},"properties":{"name":"Wansbeck","dno":"Northern Powergrid","dh":0.0,"gh":0.0,"rag":"a"}},{"type":"Feature","geometry":{"type":"Point","coordinates":[-0.33233,53.80285]},"properties":{"name":"Wawne Road","dno":"Northern Powergrid","dh":14.41,"gh":0.0,"rag":"g"}},{"type":"Feature","geometry":{"type":"Point","coordinates":[-1.36457,53.72548]},"properties":{"name":"Wellington Street","dno":"Northern Powergrid","dh":4.89,"gh":0.0,"rag":"a"}},{"type":"Feature","geometry":{"type":"Point","coordinates":[-1.85052,54.30799]},"properties":{"name":"Wensleydale","dno":"Northern Powergrid","dh":0.0,"gh":0.0,"rag":"a"}},{"type":"Feature","geometry":{"type":"Point","coordinates":[-1.59661,55.10638]},"properties":{"name":"West Hartford","dno":"Northern Powergrid","dh":0.0,"gh":0.0,"rag":"a"}},{"type":"Feature","geometry":{"type":"Point","coordinates":[-1.04082,53.53781]},"properties":{"name":"West Moor Park","dno":"Northern Powergrid","dh":0.0,"gh":0.0,"rag":"r"}},{"type":"Feature","geometry":{"type":"Point","coordinates":[-1.59298,53.83874]},"properties":{"name":"West Park","dno":"Northern Powergrid","dh":3.67,"gh":8.14,"rag":"g"}},{"type":"Feature","geometry":{"type":"Point","coordinates":[-1.41581,54.92125]},"properties":{"name":"West Southwick","dno":"Northern Powergrid","dh":18.02,"gh":34.99,"rag":"a"}},{"type":"Feature","geometry":{"type":"Point","coordinates":[-0.30585,53.75949]},"properties":{"name":"Westcott Street","dno":"Northern Powergrid","dh":0.0,"gh":0.0,"rag":"g"}},{"type":"Feature","geometry":{"type":"Point","coordinates":[-1.69518,55.0007]},"properties":{"name":"Westerhope","dno":"Northern Powergrid","dh":10.55,"gh":0.0,"rag":"r"}},{"type":"Feature","geometry":{"type":"Point","coordinates":[-1.55333,53.7953]},"properties":{"name":"Whitehall Road 2/3","dno":"Northern Powergrid","dh":0.0,"gh":29.5,"rag":"g"}},{"type":"Feature","geometry":{"type":"Point","coordinates":[-1.512,55.00289]},"properties":{"name":"Willington","dno":"Northern Powergrid","dh":7.49,"gh":0.0,"rag":"r"}},{"type":"Feature","geometry":{"type":"Point","coordinates":[0.02901,53.72625]},"properties":{"name":"Withernsea","dno":"Northern Powergrid","dh":0.0,"gh":0.0,"rag":"r"}},{"type":"Feature","geometry":{"type":"Point","coordinates":[-0.45305,53.56044]},"properties":{"name":"Wrawby","dno":"Northern Powergrid","dh":0.0,"gh":0.0,"rag":"r"}},{"type":"Feature","geometry":{"type":"Point","coordinates":[-1.317,54.63961]},"properties":{"name":"Wynyard","dno":"Northern Powergrid","dh":18.75,"gh":0.0,"rag":"r"}},{"type":"Feature","geometry":{"type":"Point","coordinates":[-1.80129,53.63532]},"properties":{"name":"Yew Green Road","dno":"Northern Powergrid","dh":0.0,"gh":2.7,"rag":"g"}},{"type":"Feature","geometry":{"type":"Point","coordinates":[-1.49998,53.80156]},"properties":{"name":"York Road","dno":"Northern Powergrid","dh":0.0,"gh":26.37,"rag":"a"}},{"type":"Feature","geometry":{"type":"Point","coordinates":[-1.04423,53.94918]},"properties":{"name":"York University","dno":"Northern Powergrid","dh":12.5,"gh":0.0,"rag":"a"}},{"type":"Feature","geometry":{"type":"Point","coordinates":[-0.23742,53.74443]},"properties":{"name":"Yorkshire Water Hull Road","dno":"Northern Powergrid","dh":0.0,"gh":0.0,"rag":"g"}},{"type":"Feature","geometry":{"type":"Point","coordinates":[-1.88892,53.87014]},"properties":{"name":"Airedale Road","dno":"Northern Powergrid","dh":12.35,"gh":14.72,"rag":"a"}},{"type":"Feature","geometry":{"type":"Point","coordinates":[-1.41704,53.53347]},"properties":{"name":"Aldham","dno":"Northern Powergrid","dh":12.79,"gh":0.0,"rag":"r"}},{"type":"Feature","geometry":{"type":"Point","coordinates":[-1.53912,53.83067]},"properties":{"name":"Allerton Hill T1","dno":"Northern Powergrid","dh":0.0,"gh":2.0,"rag":"r"}},{"type":"Feature","geometry":{"type":"Point","coordinates":[-1.51992,53.68258]},"properties":{"name":"Alverthorpe Road","dno":"Northern Powergrid","dh":0.0,"gh":25.87,"rag":"g"}},{"type":"Feature","geometry":{"type":"Point","coordinates":[-1.73209,54.8502]},"properties":{"name":"Annfield 66/20Kv","dno":"Northern Powergrid","dh":0.0,"gh":0.0,"rag":"a"}},{"type":"Feature","geometry":{"type":"Point","coordinates":[-1.56952,55.1717]},"properties":{"name":"Ashington","dno":"Northern Powergrid","dh":0.0,"gh":0.0,"rag":"a"}},{"type":"Feature","geometry":{"type":"Point","coordinates":[-1.15965,53.61892]},"properties":{"name":"Askern","dno":"Northern Powergrid","dh":0.0,"gh":0.0,"rag":"r"}},{"type":"Feature","geometry":{"type":"Point","coordinates":[-1.37929,53.93303]},"properties":{"name":"Audby Lane","dno":"Northern Powergrid","dh":0.0,"gh":0.0,"rag":"a"}},{"type":"Feature","geometry":{"type":"Point","coordinates":[-1.00399,53.45912]},"properties":{"name":"Austerfield","dno":"Northern Powergrid","dh":0.0,"gh":0.0,"rag":"r"}},{"type":"Feature","geometry":{"type":"Point","coordinates":[-1.1333,53.50504]},"properties":{"name":"Balby","dno":"Northern Powergrid","dh":0.0,"gh":0.0,"rag":"r"}},{"type":"Feature","geometry":{"type":"Point","coordinates":[-1.74894,53.79741]},"properties":{"name":"Balme Street","dno":"Northern Powergrid","dh":0.0,"gh":3.1,"rag":"a"}},{"type":"Feature","geometry":{"type":"Point","coordinates":[-2.18346,53.92414]},"properties":{"name":"Barnoldswick","dno":"Northern Powergrid","dh":8.34,"gh":17.27,"rag":"r"}},{"type":"Feature","geometry":{"type":"Point","coordinates":[-1.47615,53.55433]},"properties":{"name":"Barnsley","dno":"Northern Powergrid","dh":6.75,"gh":3.62,"rag":"r"}},{"type":"Feature","geometry":{"type":"Point","coordinates":[-1.62461,54.97487]},"properties":{"name":"Barrack Road","dno":"Northern Powergrid","dh":36.7,"gh":0.0,"rag":"g"}},{"type":"Feature","geometry":{"type":"Point","coordinates":[-1.51858,53.57294]},"properties":{"name":"Barugh 66/11Kv","dno":"Northern Powergrid","dh":11.34,"gh":15.53,"rag":"r"}},{"type":"Feature","geometry":{"type":"Point","coordinates":[-1.20978,53.70715]},"properties":{"name":"Beal","dno":"Northern Powergrid","dh":0.0,"gh":0.0,"rag":"a"}},{"type":"Feature","geometry":{"type":"Point","coordinates":[-1.58348,53.77622]},"properties":{"name":"Beeston Royds 6/7","dno":"Northern Powergrid","dh":5.72,"gh":32.72,"rag":"g"}},{"type":"Feature","geometry":{"type":"Point","coordinates":[-1.5371,54.78336]},"properties":{"name":"Belmont","dno":"Northern Powergrid","dh":5.73,"gh":0.0,"rag":"a"}},{"type":"Feature","geometry":{"type":"Point","coordinates":[-1.62198,54.95216]},"properties":{"name":"Bensham","dno":"Northern Powergrid","dh":1.26,"gh":0.0,"rag":"a"}},{"type":"Feature","geometry":{"type":"Point","coordinates":[-1.53735,55.022]},"properties":{"name":"Benton Square","dno":"Northern Powergrid","dh":0.0,"gh":0.0,"rag":"a"}},{"type":"Feature","geometry":{"type":"Point","coordinates":[-1.66147,54.9724]},"properties":{"name":"Benwell","dno":"Northern Powergrid","dh":10.98,"gh":0.0,"rag":"r"}},{"type":"Feature","geometry":{"type":"Point","coordinates":[-0.41565,53.82101]},"properties":{"name":"Beverley 132/33Kv","dno":"Northern Powergrid","dh":23.63,"gh":0.0,"rag":"r"}},{"type":"Feature","geometry":{"type":"Point","coordinates":[-0.17634,53.41985]},"properties":{"name":"Binbrook","dno":"Northern Powergrid","dh":0.0,"gh":0.0,"rag":"r"}},{"type":"Feature","geometry":{"type":"Point","coordinates":[-1.79116,53.65559]},"properties":{"name":"Birkby","dno":"Northern Powergrid","dh":0.0,"gh":3.23,"rag":"g"}},{"type":"Feature","geometry":{"type":"Point","coordinates":[-1.58452,54.90101]},"properties":{"name":"Birtley Grove 66/11Kv","dno":"Northern Powergrid","dh":0.0,"gh":0.0,"rag":"a"}},{"type":"Feature","geometry":{"type":"Point","coordinates":[-1.58452,54.90101]},"properties":{"name":"Birtley Grove 66/20Kv","dno":"Northern Powergrid","dh":0.0,"gh":0.0,"rag":"r"}},{"type":"Feature","geometry":{"type":"Point","coordinates":[-1.72663,54.96283]},"properties":{"name":"Blaydon Burn","dno":"Northern Powergrid","dh":8.25,"gh":0.0,"rag":"a"}},{"type":"Feature","geometry":{"type":"Point","coordinates":[-1.3863,53.41118]},"properties":{"name":"Boc Brinsworth","dno":"Northern Powergrid","dh":0.0,"gh":0.0,"rag":"r"}},{"type":"Feature","geometry":{"type":"Point","coordinates":[-0.63761,53.56039]},"properties":{"name":"Bottesford","dno":"Northern Powergrid","dh":0.0,"gh":0.0,"rag":"r"}},{"type":"Feature","geometry":{"type":"Point","coordinates":[-1.62435,53.80674]},"properties":{"name":"Bramley","dno":"Northern Powergrid","dh":10.46,"gh":25.75,"rag":"g"}},{"type":"Feature","geometry":{"type":"Point","coordinates":[-1.70797,54.71984]},"properties":{"name":"Brancepeth","dno":"Northern Powergrid","dh":13.25,"gh":0.0,"rag":"g"}},{"type":"Feature","geometry":{"type":"Point","coordinates":[-1.21282,54.66545]},"properties":{"name":"Brenda Trading","dno":"Northern Powergrid","dh":4.04,"gh":0.0,"rag":"a"}},{"type":"Feature","geometry":{"type":"Point","coordinates":[-1.68907,53.73213]},"properties":{"name":"Burnleyville","dno":"Northern Powergrid","dh":0.0,"gh":3.04,"rag":"g"}},{"type":"Feature","geometry":{"type":"Point","coordinates":[-1.08856,53.94339]},"properties":{"name":"Campleshon Road","dno":"Northern Powergrid","dh":7.28,"gh":0.0,"rag":"r"}},{"type":"Feature","geometry":{"type":"Point","coordinates":[-1.58109,54.94406]},"properties":{"name":"Carr Hill","dno":"Northern Powergrid","dh":4.6,"gh":26.8,"rag":"a"}},{"type":"Feature","geometry":{"type":"Point","coordinates":[-1.34094,53.7139]},"properties":{"name":"Carr Lane","dno":"Northern Powergrid","dh":3.26,"gh":0.0,"rag":"a"}},{"type":"Feature","geometry":{"type":"Point","coordinates":[-1.72945,54.37483]},"properties":{"name":"Catterick Camp","dno":"Northern Powergrid","dh":0.0,"gh":0.0,"rag":"r"}},{"type":"Feature","geometry":{"type":"Point","coordinates":[-1.90824,53.95787]},"properties":{"name":"Chelker Reservoir","dno":"Northern Powergrid","dh":4.1,"gh":0.89,"rag":"r"}},{"type":"Feature","geometry":{"type":"Point","coordinates":[-1.55964,53.80603]},"properties":{"name":"Clarendon Road","dno":"Northern Powergrid","dh":13.35,"gh":2.68,"rag":"a"}},{"type":"Feature","geometry":{"type":"Point","coordinates":[-1.61472,54.96544]},"properties":{"name":"Close","dno":"Northern Powergrid","dh":7.66,"gh":0.0,"rag":"a"}},{"type":"Feature","geometry":{"type":"Point","coordinates":[-0.75774,53.40554]},"properties":{"name":"Corringham Road","dno":"Northern Powergrid","dh":0.0,"gh":0.0,"rag":"r"}},{"type":"Feature","geometry":{"type":"Point","coordinates":[-1.12667,53.36968]},"properties":{"name":"Costhorpe","dno":"Northern Powergrid","dh":3.12,"gh":0.0,"rag":"g"}},{"type":"Feature","geometry":{"type":"Point","coordinates":[-1.54025,54.52605]},"properties":{"name":"Darlington Central","dno":"Northern Powergrid","dh":0.0,"gh":0.0,"rag":"g"}},{"type":"Feature","geometry":{"type":"Point","coordinates":[-1.41063,53.38538]},"properties":{"name":"Darnall","dno":"Northern Powergrid","dh":0.0,"gh":0.0,"rag":"r"}},{"type":"Feature","geometry":{"type":"Point","coordinates":[-1.33014,53.51128]},"properties":{"name":"Dearne Road","dno":"Northern Powergrid","dh":13.98,"gh":0.0,"rag":"r"}},{"type":"Feature","geometry":{"type":"Point","coordinates":[-1.50828,53.66428]},"properties":{"name":"Denby Dale Road","dno":"Northern Powergrid","dh":14.18,"gh":2.39,"rag":"r"}},{"type":"Feature","geometry":{"type":"Point","coordinates":[-1.13877,53.52614]},"properties":{"name":"Doncaster Central","dno":"Northern Powergrid","dh":0.0,"gh":0.0,"rag":"r"}},{"type":"Feature","geometry":{"type":"Point","coordinates":[-0.08235,53.56264]},"properties":{"name":"Doughty Road","dno":"Northern Powergrid","dh":0.0,"gh":0.0,"rag":"g"}},{"type":"Feature","geometry":{"type":"Point","coordinates":[-0.99272,53.7325]},"properties":{"name":"Drax","dno":"Northern Powergrid","dh":204.1,"gh":0.0,"rag":"g"}},{"type":"Feature","geometry":{"type":"Point","coordinates":[-0.41722,53.99928]},"properties":{"name":"Driffield/Beverley Group","dno":"Northern Powergrid","dh":46.2,"gh":0.0,"rag":"r"}},{"type":"Feature","geometry":{"type":"Point","coordinates":[-1.46466,53.30043]},"properties":{"name":"Dronfield","dno":"Northern Powergrid","dh":13.28,"gh":0.0,"rag":"r"}},{"type":"Feature","geometry":{"type":"Point","coordinates":[0.1155,53.66055]},"properties":{"name":"Easington","dno":"Northern Powergrid","dh":0.0,"gh":0.0,"rag":"a"}},{"type":"Feature","geometry":{"type":"Point","coordinates":[-0.39953,54.23701]},"properties":{"name":"Eastfield","dno":"Northern Powergrid","dh":2.64,"gh":0.0,"rag":"r"}},{"type":"Feature","geometry":{"type":"Point","coordinates":[-0.25817,53.64104]},"properties":{"name":"Eastfield Road","dno":"Northern Powergrid","dh":0.0,"gh":0.0,"rag":"g"}},{"type":"Feature","geometry":{"type":"Point","coordinates":[-1.18297,53.48463]},"properties":{"name":"Edlington","dno":"Northern Powergrid","dh":10.56,"gh":0.0,"rag":"g"}},{"type":"Feature","geometry":{"type":"Point","coordinates":[-1.60819,54.97932]},"properties":{"name":"Educational Precinct","dno":"Northern Powergrid","dh":5.3,"gh":0.0,"rag":"r"}},{"type":"Feature","geometry":{"type":"Point","coordinates":[-1.12278,53.70498]},"properties":{"name":"Eggborough","dno":"Northern Powergrid","dh":0.68,"gh":0.0,"rag":"g"}},{"type":"Feature","geometry":{"type":"Point","coordinates":[-1.8304,53.68505]},"properties":{"name":"Elland 33/11Kv","dno":"Northern Powergrid","dh":2.6,"gh":22.06,"rag":"r"}},{"type":"Feature","geometry":{"type":"Point","coordinates":[-1.53842,53.5471]},"properties":{"name":"Elmhirst Lane 1","dno":"Northern Powergrid","dh":21.0,"gh":15.53,"rag":"r"}},{"type":"Feature","geometry":{"type":"Point","coordinates":[-0.3893,53.77974]},"properties":{"name":"Endike Lane","dno":"Northern Powergrid","dh":11.4,"gh":0.0,"rag":"r"}},{"type":"Feature","geometry":{"type":"Point","coordinates":[-0.82897,53.52867]},"properties":{"name":"Epworth","dno":"Northern Powergrid","dh":0.0,"gh":0.0,"rag":"r"}},{"type":"Feature","geometry":{"type":"Point","coordinates":[-1.53588,53.84916]},"properties":{"name":"Fir Tree Lane","dno":"Northern Powergrid","dh":7.01,"gh":4.43,"rag":"g"}},{"type":"Feature","geometry":{"type":"Point","coordinates":[-1.79592,53.80012]},"properties":{"name":"Four Lane Ends","dno":"Northern Powergrid","dh":11.1,"gh":3.05,"rag":"a"}},{"type":"Feature","geometry":{"type":"Point","coordinates":[-2.165,55.01196]},"properties":{"name":"Fourstones 20Kv","dno":"Northern Powergrid","dh":22.0,"gh":40.0,"rag":"g"}},{"type":"Feature","geometry":{"type":"Point","coordinates":[-2.165,55.01196]},"properties":{"name":"Fourstones 33Kv","dno":"Northern Powergrid","dh":51.0,"gh":0.0,"rag":"g"}},{"type":"Feature","geometry":{"type":"Point","coordinates":[-1.36675,53.41624]},"properties":{"name":"Fullerton Road","dno":"Northern Powergrid","dh":14.62,"gh":0.78,"rag":"g"}},{"type":"Feature","geometry":{"type":"Point","coordinates":[-1.60104,54.96031]},"properties":{"name":"Gateshead Central","dno":"Northern Powergrid","dh":10.0,"gh":0.0,"rag":"a"}},{"type":"Feature","geometry":{"type":"Point","coordinates":[-1.60539,55.00972]},"properties":{"name":"Gosforth 33/11Kv","dno":"Northern Powergrid","dh":15.98,"gh":38.03,"rag":"a"}},{"type":"Feature","geometry":{"type":"Point","coordinates":[0.09505,53.44273]},"properties":{"name":"Grainthorpe","dno":"Northern Powergrid","dh":0.0,"gh":0.0,"rag":"r"}},{"type":"Feature","geometry":{"type":"Point","coordinates":[-1.20752,54.62793]},"properties":{"name":"Greatham Direct","dno":"Northern Powergrid","dh":12.17,"gh":0.0,"rag":"a"}},{"type":"Feature","geometry":{"type":"Point","coordinates":[-1.4848,53.32531]},"properties":{"name":"Greenhill","dno":"Northern Powergrid","dh":4.02,"gh":0.0,"rag":"r"}},{"type":"Feature","geometry":{"type":"Point","coordinates":[-1.13915,53.52608]},"properties":{"name":"Greyfriars Road 3/4","dno":"Northern Powergrid","dh":0.0,"gh":0.0,"rag":"r"}},{"type":"Feature","geometry":{"type":"Point","coordinates":[-0.15118,53.56605]},"properties":{"name":"Grimsby West","dno":"Northern Powergrid","dh":0.0,"gh":0.0,"rag":"g"}},{"type":"Feature","geometry":{"type":"Point","coordinates":[-1.59247,54.93047]},"properties":{"name":"Harlow Green","dno":"Northern Powergrid","dh":1.81,"gh":13.1,"rag":"a"}},{"type":"Feature","geometry":{"type":"Point","coordinates":[-0.60862,53.40117]},"properties":{"name":"Harpswell","dno":"Northern Powergrid","dh":0.0,"gh":0.0,"rag":"r"}},{"type":"Feature","geometry":{"type":"Point","coordinates":[-1.93884,53.83834]},"properties":{"name":"Haworth 2","dno":"Northern Powergrid","dh":26.17,"gh":30.3,"rag":"r"}},{"type":"Feature","geometry":{"type":"Point","coordinates":[-0.76443,53.90828]},"properties":{"name":"Hayton","dno":"Northern Powergrid","dh":0.33,"gh":0.0,"rag":"r"}},{"type":"Feature","geometry":{"type":"Point","coordinates":[-1.6803,53.71144]},"properties":{"name":"Heckmondwike","dno":"Northern Powergrid","dh":0.0,"gh":43.68,"rag":"g"}},{"type":"Feature","geometry":{"type":"Point","coordinates":[-0.24488,53.74412]},"properties":{"name":"Hedon Road","dno":"Northern Powergrid","dh":0.0,"gh":0.0,"rag":"g"}},{"type":"Feature","geometry":{"type":"Point","coordinates":[-1.58,54.59267]},"properties":{"name":"Heighington","dno":"Northern Powergrid","dh":0.0,"gh":0.0,"rag":"r"}},{"type":"Feature","geometry":{"type":"Point","coordinates":[-0.39597,53.72899]},"properties":{"name":"Hessle Road 1","dno":"Northern Powergrid","dh":19.66,"gh":0.0,"rag":"g"}},{"type":"Feature","geometry":{"type":"Point","coordinates":[-0.39597,53.72899]},"properties":{"name":"Hessle Road 2","dno":"Northern Powergrid","dh":17.17,"gh":0.0,"rag":"g"}},{"type":"Feature","geometry":{"type":"Point","coordinates":[-2.09298,54.97736]},"properties":{"name":"Hexham","dno":"Northern Powergrid","dh":0.0,"gh":0.0,"rag":"r"}},{"type":"Feature","geometry":{"type":"Point","coordinates":[-0.58397,53.48749]},"properties":{"name":"Hibaldstow","dno":"Northern Powergrid","dh":0.0,"gh":0.0,"rag":"r"}},{"type":"Feature","geometry":{"type":"Point","coordinates":[-1.59042,54.86436]},"properties":{"name":"High Flatts","dno":"Northern Powergrid","dh":8.79,"gh":0.0,"rag":"a"}},{"type":"Feature","geometry":{"type":"Point","coordinates":[-1.51495,53.81745]},"properties":{"name":"Hillcrest","dno":"Northern Powergrid","dh":0.0,"gh":4.01,"rag":"a"}},{"type":"Feature","geometry":{"type":"Point","coordinates":[-0.37894,53.73308]},"properties":{"name":"Hull South","dno":"Northern Powergrid","dh":43.75,"gh":0.0,"rag":"g"}},{"type":"Feature","geometry":{"type":"Point","coordinates":[-0.04891,53.53604]},"properties":{"name":"Humberston","dno":"Northern Powergrid","dh":0.0,"gh":0.0,"rag":"g"}},{"type":"Feature","geometry":{"type":"Point","coordinates":[-0.32641,54.18873]},"properties":{"name":"Hunmanby","dno":"Northern Powergrid","dh":17.22,"gh":0.0,"rag":"r"}},{"type":"Feature","geometry":{"type":"Point","coordinates":[-1.05559,53.97928]},"properties":{"name":"Huntington New Lane","dno":"Northern Powergrid","dh":4.32,"gh":0.0,"rag":"g"}},{"type":"Feature","geometry":{"type":"Point","coordinates":[-0.19243,53.61498]},"properties":{"name":"Immingham","dno":"Northern Powergrid","dh":0.0,"gh":0.0,"rag":"g"}},{"type":"Feature","geometry":{"type":"Point","coordinates":[-2.03504,53.95629]},"properties":{"name":"Ings Lane","dno":"Northern Powergrid","dh":1.26,"gh":1.92,"rag":"r"}},{"type":"Feature","geometry":{"type":"Point","coordinates":[-1.5,54.98026]},"properties":{"name":"Jarrow","dno":"Northern Powergrid","dh":19.5,"gh":25.31,"rag":"r"}},{"type":"Feature","geometry":{"type":"Point","coordinates":[-1.90599,53.86488]},"properties":{"name":"Keighley Direct","dno":"Northern Powergrid","dh":20.2,"gh":40.86,"rag":"a"}},{"type":"Feature","geometry":{"type":"Point","coordinates":[-1.52082,53.71734]},"properties":{"name":"Kenmore Road","dno":"Northern Powergrid","dh":0.0,"gh":27.22,"rag":"g"}},{"type":"Feature","geometry":{"type":"Point","coordinates":[-1.65338,55.00253]},"properties":{"name":"Kenton","dno":"Northern Powergrid","dh":10.54,"gh":0.0,"rag":"g"}},{"type":"Feature","geometry":{"type":"Point","coordinates":[-1.57989,55.03389]},"properties":{"name":"Killingworth","dno":"Northern Powergrid","dh":8.83,"gh":15.86,"rag":"r"}},{"type":"Feature","geometry":{"type":"Point","coordinates":[-1.31688,53.46782]},"properties":{"name":"Kilnhurst","dno":"Northern Powergrid","dh":13.66,"gh":0.0,"rag":"r"}},{"type":"Feature","geometry":{"type":"Point","coordinates":[-1.59698,53.80564]},"properties":{"name":"Kirkstall B","dno":"Northern Powergrid","dh":202.55,"gh":455.17,"rag":"g"}},{"type":"Feature","geometry":{"type":"Point","coordinates":[-1.58909,53.80673]},"properties":{"name":"Kirkstall C 2/5","dno":"Northern Powergrid","dh":37.66,"gh":129.08,"rag":"g"}},{"type":"Feature","geometry":{"type":"Point","coordinates":[-1.49545,53.78192]},"properties":{"name":"Knostrop","dno":"Northern Powergrid","dh":0.0,"gh":10.54,"rag":"a"}},{"type":"Feature","geometry":{"type":"Point","coordinates":[-1.50946,53.80168]},"properties":{"name":"Leeds East","dno":"Northern Powergrid","dh":0.0,"gh":43.68,"rag":"a"}},{"type":"Feature","geometry":{"type":"Point","coordinates":[-1.54215,53.81389]},"properties":{"name":"Leeds North","dno":"Northern Powergrid","dh":0.0,"gh":43.68,"rag":"g"}},{"type":"Feature","geometry":{"type":"Point","coordinates":[-1.55871,54.32772]},"properties":{"name":"Leeming Bar/Skeeby","dno":"Northern Powergrid","dh":0.0,"gh":0.0,"rag":"g"}},{"type":"Feature","geometry":{"type":"Point","coordinates":[-1.7876,53.78935]},"properties":{"name":"Legrams Mill Lane","dno":"Northern Powergrid","dh":13.29,"gh":25.66,"rag":"a"}},{"type":"Feature","geometry":{"type":"Point","coordinates":[-1.59113,55.0071]},"properties":{"name":"Longbenton","dno":"Northern Powergrid","dh":6.7,"gh":26.31,"rag":"r"}},{"type":"Feature","geometry":{"type":"Point","coordinates":[-1.59087,54.69681]},"properties":{"name":"Low Spennymoor","dno":"Northern Powergrid","dh":14.88,"gh":0.0,"rag":"a"}},{"type":"Feature","geometry":{"type":"Point","coordinates":[-1.56493,53.41061]},"properties":{"name":"Loxley Road","dno":"Northern Powergrid","dh":4.79,"gh":0.28,"rag":"a"}},{"type":"Feature","geometry":{"type":"Point","coordinates":[-1.51429,55.1281]},"properties":{"name":"Maddison Street","dno":"Northern Powergrid","dh":0.0,"gh":0.0,"rag":"g"}},{"type":"Feature","geometry":{"type":"Point","coordinates":[-1.11408,53.50063]},