{"type":"FeatureCollection","features":[{"type":"Feature","geometry":{"type":"Point","coordinates":[-4.05657,51.07976]},"properties":{"name":"361 Energy","n":1,"total":266394,"projects":"Warmer Homes for Northern Devon","url":"https://361energy.org/","loc":"office"}},{"type":"Feature","geometry":{"type":"Point","coordinates":[-1.83269,52.18547]},"properties":{"name":"Act on Energy","n":4,"total":3585608,"projects":"Warmer Homes West Midlands · Warmer Homes West Midlands- phase 2 · Warmth in Warwickshire and Worcestershire …","url":"https://actonenergy.org.uk/","loc":"office"}},{"type":"Feature","geometry":{"type":"Point","coordinates":[-1.42659,54.99654]},"properties":{"name":"Age Concern Tyneside South","n":4,"total":252803,"projects":"My House is Cold Too · Scared to put my heating on! · Don't use your energy worrying! …","url":"https://ac-ts.org.uk/","loc":"office"}},{"type":"Feature","geometry":{"type":"Point","coordinates":[-1.48259,53.55352]},"properties":{"name":"Age UK Barnsley","n":1,"total":228203,"projects":"Smart Solar in Barnsley","url":"https://www.ageuk.org.uk/barnsley/","loc":"area"}},{"type":"Feature","geometry":{"type":"Point","coordinates":[-0.05296,51.53142]},"properties":{"name":"Age UK East London","n":2,"total":99773,"projects":"Warm and Well at home · Warm and Well at home","url":"https://www.ageuk.org.uk/eastlondon/","loc":"office"}},{"type":"Feature","geometry":{"type":"Point","coordinates":[-0.11747,51.4611]},"properties":{"name":"Age UK Lambeth","n":2,"total":490345,"projects":"Lambeth Energy Boost · Lambeth Energy Boost","url":"https://www.ageuk.org.uk/lambeth/","loc":"office"}},{"type":"Feature","geometry":{"type":"Point","coordinates":[-0.40343,54.28313]},"properties":{"name":"Age UK North Yorkshire Coast and Moors","n":1,"total":292808,"projects":"Energy Your Way","url":"https://www.ageuk.org.uk/northyorkshirecoastmoors/","loc":"office"}},{"type":"Feature","geometry":{"type":"Point","coordinates":[-1.47213,53.37501]},"properties":{"name":"Age UK Sheffield","n":1,"total":74574,"projects":"Reaching Out Sheffield","url":"https://www.ageuk.org.uk/sheffield/","loc":"office"}},{"type":"Feature","geometry":{"type":"Point","coordinates":[-1.46854,53.38251]},"properties":{"name":"Age UK Sheffield","n":1,"total":63740,"projects":"Older Sheffielders WIN","url":"https://www.ageuk.org.uk/sheffield/","loc":"area"}},{"type":"Feature","geometry":{"type":"Point","coordinates":[-1.77755,52.41275]},"properties":{"name":"Age UK Solihull","n":1,"total":49696,"projects":"Solihull Home Energy Advice Project","loc":"area"}},{"type":"Feature","geometry":{"type":"Point","coordinates":[-1.35407,53.72681]},"properties":{"name":"Age UK Wakefield District","n":1,"total":267367,"projects":"Warmer Homes for Wakefield's Older People","url":"https://www.ageuk.org.uk/wakefielddistrict/","loc":"office"}},{"type":"Feature","geometry":{"type":"Point","coordinates":[-0.02103,51.61707]},"properties":{"name":"Age UK Waltham Forest","n":1,"total":49769,"projects":"Energy In The Home","url":"https://www.ageuk.org.uk/walthamforest/","loc":"office"}},{"type":"Feature","geometry":{"type":"Point","coordinates":[-2.89863,53.45591]},"properties":{"name":"Alt Valley Community Trust","n":2,"total":223055,"projects":"Energy advice and support for elderly · Energy Champions - Help for Elderly Persons","url":"https://altvalley.co.uk/","loc":"office"}},{"type":"Feature","geometry":{"type":"Point","coordinates":[-0.67224,50.78322]},"properties":{"name":"Arun and Chichester Citizens Advice Bureau","n":2,"total":739757,"projects":"TFPT - Home Improvement Support · Tackling fuel poverty together in Sussex","url":"https://arunchichestercab.org.uk/","loc":"office"}},{"type":"Feature","geometry":{"type":"Point","coordinates":[-2.58569,51.91073]},"properties":{"name":"Ashfield Citizens Advice Bureau","n":1,"total":49960,"projects":"Ashfield Energy Efficiency","url":"https://www.ashfieldca.org.uk/","loc":"area"}},{"type":"Feature","geometry":{"type":"Point","coordinates":[-1.1249,53.30219]},"properties":{"name":"Bassetlaw Citizens Advice Bureau","n":1,"total":197804,"projects":"Be Savvy - Be Energy Smart!","loc":"office"}},{"type":"Feature","geometry":{"type":"Point","coordinates":[-2.36743,51.37875]},"properties":{"name":"Bath and West Community Energy","n":1,"total":499588,"projects":"Bath and West Community Wind Farm","url":"https://www.bwce.coop/","loc":"office"}},{"type":"Feature","geometry":{"type":"Point","coordinates":[-2.03317,52.68995]},"properties":{"name":"Beat the Cold","n":1,"total":227012,"projects":"Smart solar in Cannock","loc":"area"}},{"type":"Feature","geometry":{"type":"Point","coordinates":[-2.15101,53.03881]},"properties":{"name":"Beat the Cold","n":3,"total":504960,"projects":"Staffs Frailty Hub - Affordable Warmth · Smart Solar in Cannock · Staffs Frailty Hub - Affordable Warmth","url":"https://www.beatcold.org.uk/","loc":"office"}},{"type":"Feature","geometry":{"type":"Point","coordinates":[-0.10827,51.56426]},"properties":{"name":"Big Issue Trust","n":1,"total":277500,"projects":"Fighting Fuel Poverty","url":"https://www.bigissue.com/invest/big-issue-invest-trust/","loc":"office"}},{"type":"Feature","geometry":{"type":"Point","coordinates":[-1.90137,52.48015]},"properties":{"name":"Birmingham Citizens Advice Bureau Service Limited","n":1,"total":87132,"projects":"Birmingham Energy Affordability Project","url":"https://bcabs.org.uk/","loc":"office"}},{"type":"Feature","geometry":{"type":"Point","coordinates":[-1.90294,52.47928]},"properties":{"name":"Birmingham Disability Resource Centre","n":1,"total":220903,"projects":"Warm, Safe and Sound Project","url":"https://www.disability.co.uk/","loc":"area"}},{"type":"Feature","geometry":{"type":"Point","coordinates":[-2.18593,53.07577]},"properties":{"name":"Blackbird Leys Neighbourhood Support Scheme Operating as Agnes Smith Advice Centre","n":1,"total":38165,"projects":"Money and Power: Reducing Fuel Poverty","loc":"area"}},{"type":"Feature","geometry":{"type":"Point","coordinates":[-1.90294,52.47928]},"properties":{"name":"Bourneville Village Trust","n":1,"total":379137,"projects":"Birmingham Fuel Poverty Alliance","loc":"area"}},{"type":"Feature","geometry":{"type":"Point","coordinates":[-1.94947,52.4301]},"properties":{"name":"Bournville Village Trust","n":1,"total":378135,"projects":"Bournville Village Trust","url":"https://www.bvt.org.uk/","loc":"office"}},{"type":"Feature","geometry":{"type":"Point","coordinates":[1.29687,51.12785]},"properties":{"name":"Bromley by Bow Centre","n":1,"total":269195,"projects":"Empower You Too","loc":"area"}},{"type":"Feature","geometry":{"type":"Point","coordinates":[-0.01241,51.52639]},"properties":{"name":"Bromley by Bow Centre","n":5,"total":1670156,"projects":"Empower You Too · PowerBank · People Powered 2 …","url":"https://www.bbbc.org.uk/health-centres/bromley-by-bow-health-centre/","loc":"office"}},{"type":"Feature","geometry":{"type":"Point","coordinates":[-1.55026,53.8007]},"properties":{"name":"Burmantofts Community Projects","n":1,"total":355737,"projects":"Money Buddies Energy Plus","loc":"area"}},{"type":"Feature","geometry":{"type":"Point","coordinates":[-1.51724,53.80535]},"properties":{"name":"Burmantofts Community Projects","n":2,"total":990824,"projects":"Energy Buddies · Money Buddies Energy Plus","url":"https://www.burmantoftscommunityprojects.org/","loc":"office"}},{"type":"Feature","geometry":{"type":"Point","coordinates":[-0.19988,51.4412]},"properties":{"name":"CREW Energy","n":1,"total":41681,"projects":"Solar for All","url":"https://www.crewenergy.london/","loc":"office"}},{"type":"Feature","geometry":{"type":"Point","coordinates":[0.2771,52.46547]},"properties":{"name":"Cambridgeshire ACRE","n":1,"total":304111,"projects":"CHESS-3","url":"https://cambsacre.org.uk/","loc":"office"}},{"type":"Feature","geometry":{"type":"Point","coordinates":[-1.5734,53.80718]},"properties":{"name":"Canopy Housing Project Ltd","n":1,"total":200000,"projects":"Canopy Community Retrofit","url":"https://www.canopyhousing.org/","loc":"office"}},{"type":"Feature","geometry":{"type":"Point","coordinates":[-2.25983,53.48374]},"properties":{"name":"Caritas Diocese of Salford","n":3,"total":721903,"projects":"Caritas Energy Advice Service · Caritas Energy Advice Service (Greater Manchester) · Caritas Energy Advice Service","url":"https://www.caritassalford.org.uk/","loc":"office"}},{"type":"Feature","geometry":{"type":"Point","coordinates":[-2.265,53.00394]},"properties":{"name":"Caudwell Children","n":1,"total":390806,"projects":"Keeping Disabled Children Warm","url":"https://www.caudwellchildren.com/","loc":"office"}},{"type":"Feature","geometry":{"type":"Point","coordinates":[-2.35929,51.3828]},"properties":{"name":"Centre for Sustainable Energy","n":1,"total":191000,"projects":"ABLE (Assisting B&NES on Local Energy","url":"https://www.cse.org.uk/","loc":"area"}},{"type":"Feature","geometry":{"type":"Point","coordinates":[-2.59248,51.4589]},"properties":{"name":"Centre for Sustainable Energy","n":14,"total":4127117,"projects":"Home Energy Advice for Rural Tenants (project operating across Somerset) · A Warm Welcome Home · Emergency Caseworkers support …","url":"https://www.cse.org.uk/","loc":"office"}},{"type":"Feature","geometry":{"type":"Point","coordinates":[-0.98605,51.67885]},"properties":{"name":"Centre for Sustainable Energy","n":1,"total":48937,"projects":"Emergency Caseworkers support","loc":"area"}},{"type":"Feature","geometry":{"type":"Point","coordinates":[-2.93908,53.4263]},"properties":{"name":"Citizen Outreach Coalition","n":1,"total":122306,"projects":"Energy Savings Awareness Campaign","url":"https://citizenoutreachcoalition.com/about/our-partners/","loc":"office"}},{"type":"Feature","geometry":{"type":"Point","coordinates":[0.55938,50.85345]},"properties":{"name":"Citizens Advice 1066","n":1,"total":499544,"projects":"Household Energy Monitoring And Support (HEMAS)","url":"https://www.citizensadvice1066.co.uk/","loc":"office"}},{"type":"Feature","geometry":{"type":"Point","coordinates":[-1.75551,53.79704]},"properties":{"name":"Citizens Advice Bradford & Airedale and Bradford Law Centre","n":1,"total":315223,"projects":"Energy Support for Vulnerable Clients","url":"https://www.citizensadvice.org.uk/local/bradford-airedale/","loc":"office"}},{"type":"Feature","geometry":{"type":"Point","coordinates":[-2.52589,53.1894]},"properties":{"name":"Citizens Advice Cheshire West","n":2,"total":451582,"projects":"Energy for Life · Energy for Life","url":"https://www.citizensadvicecw.org.uk/","loc":"office"}},{"type":"Feature","geometry":{"type":"Point","coordinates":[-1.60377,54.69836]},"properties":{"name":"Citizens Advice County Durham","n":4,"total":1030243,"projects":"County Durham Social Landlord Tenants Project · Energy Advice - Right Place, Right Time · Energy: Advice, Engagement, Support …","url":"https://www.citizensadvicecd.org.uk/","loc":"office"}},{"type":"Feature","geometry":{"type":"Point","coordinates":[1.75398,52.47704]},"properties":{"name":"Citizens Advice East Suffolk","n":1,"total":48938,"projects":"Fighting Fuel Poverty","url":"https://citizensadviceeastsuffolk.org.uk/","loc":"office"}},{"type":"Feature","geometry":{"type":"Point","coordinates":[0.68047,51.72886]},"properties":{"name":"Citizens Advice Essex","n":2,"total":748904,"projects":"Warm Start Essex · Warm Start Plus","url":"https://citizensadviceessex.org.uk/","loc":"office"}},{"type":"Feature","geometry":{"type":"Point","coordinates":[-1.5998,54.96346]},"properties":{"name":"Citizens Advice Gateshead","n":1,"total":596605,"projects":"Spectrum of Support","url":"https://citizensadvicegateshead.org.uk/","loc":"office"}},{"type":"Feature","geometry":{"type":"Point","coordinates":[-0.29704,51.60503]},"properties":{"name":"Citizens Advice Hillingdon","n":2,"total":111509,"projects":"Heat 4 Hillingdon · Heat 4 Hillingdon","url":"https://www.hillingdoncab.org.uk/","loc":"office"}},{"type":"Feature","geometry":{"type":"Point","coordinates":[-0.95141,52.95359]},"properties":{"name":"Citizens Advice LeicesterShire","n":2,"total":212588,"projects":"Leicestershire Energy Support · Leicestershire Energy Advice Service (LEAS)","url":"https://citizensadviceleicestershire.org/","loc":"office"}},{"type":"Feature","geometry":{"type":"Point","coordinates":[-0.77265,53.39888]},"properties":{"name":"Citizens Advice Lincoln & Lindsey","n":1,"total":241161,"projects":"EnergyHelp","url":"https://www.citizensadvicelincolnandlindsey.org.uk/","loc":"office"}},{"type":"Feature","geometry":{"type":"Point","coordinates":[-2.9333,53.40777]},"properties":{"name":"Citizens Advice Liverpool","n":1,"total":772091,"projects":"Liverpool Energy Advice and Support Project","url":"https://www.citizensadviceliverpool.org.uk/","loc":"office"}},{"type":"Feature","geometry":{"type":"Point","coordinates":[-2.24528,53.47894]},"properties":{"name":"Citizens Advice Manchester","n":1,"total":89200,"projects":"Switched On - Young People's Energy Advice","url":"https://www.citizensadvicemanchester.org.uk/","loc":"area"}},{"type":"Feature","geometry":{"type":"Point","coordinates":[-0.02717,52.97614]},"properties":{"name":"Citizens Advice Mid Lincolnshire","n":3,"total":172723,"projects":"Energy Advice · The Energy Saver Project · EnergyWell","url":"https://camidlincs.org.uk/","loc":"office"}},{"type":"Feature","geometry":{"type":"Point","coordinates":[-1.56539,52.76007]},"properties":{"name":"Citizens Advice Mid Mercia","n":1,"total":441435,"projects":"Energy Resilience Alliance: Empowering Vulnerable Consumers","url":"https://www.citizensadvicemidmercia.org.uk/","loc":"office"}},{"type":"Feature","geometry":{"type":"Point","coordinates":[-2.17369,53.03165]},"properties":{"name":"Citizens Advice North Staffordshire","n":2,"total":565016,"projects":"PMW Energy · PMW Energy Redress","url":"http://snscab.org.uk/","loc":"office"}},{"type":"Feature","geometry":{"type":"Point","coordinates":[-2.23217,53.48471]},"properties":{"name":"Citizens Advice SORT Group","n":5,"total":1149330,"projects":"Tenants Powered Up · Switching to Smart · EnerGenie: AI-Powered Energy Advice Delivery …","url":"https://www.casort.org/","loc":"office"}},{"type":"Feature","geometry":{"type":"Point","coordinates":[-0.01048,51.53104]},"properties":{"name":"Citizens Advice Waltham Forest","n":2,"total":99817,"projects":"Levelling the Field · Levelling the field","url":"https://www.citizensadvice.org.uk/local/waltham-forest/","loc":"office"}},{"type":"Feature","geometry":{"type":"Point","coordinates":[0.16366,51.47775]},"properties":{"name":"Community Action Northumberland","n":1,"total":147995,"projects":"Remote Northumberland Energy Advice","url":"http://ca-north.org.uk/","loc":"area"}},{"type":"Feature","geometry":{"type":"Point","coordinates":[-1.64854,55.18028]},"properties":{"name":"Community Action Northumberland","n":1,"total":225790,"projects":"Northumberland Community Energy Ltd","url":"https://ca-north.org.uk/","loc":"office"}},{"type":"Feature","geometry":{"type":"Point","coordinates":[-1.18097,54.55846]},"properties":{"name":"Community Ventures (Middlesbrough) Ltd","n":1,"total":348532,"projects":"CVL Thermal Comfort Project","url":"https://www.communityventuresteesvalley.org/","loc":"office"}},{"type":"Feature","geometry":{"type":"Point","coordinates":[-0.11006,51.37885]},"properties":{"name":"Croydon BME Forum","n":3,"total":184386,"projects":"Healthy Homes for all · Healthy Homes for all 2 · Healthy Homes for all","url":"https://www.cbmeforum.org/","loc":"office"}},{"type":"Feature","geometry":{"type":"Point","coordinates":[-1.48894,53.55324]},"properties":{"name":"DIAL Barnsley","n":1,"total":256440,"projects":"Warm Connections","url":"https://dialbarnsley.org.uk/","loc":"office"}},{"type":"Feature","geometry":{"type":"Point","coordinates":[-1.48259,53.55352]},"properties":{"name":"DIAL Barnsley","n":1,"total":256441,"projects":"Warm connections","loc":"area"}},{"type":"Feature","geometry":{"type":"Point","coordinates":[-2.03439,52.56868]},"properties":{"name":"Darlaston All Active","n":1,"total":42385,"projects":"Darlaston Energy Busters","url":"http://darlastonallactive.co.uk/","loc":"office"}},{"type":"Feature","geometry":{"type":"Point","coordinates":[-1.50232,54.51494]},"properties":{"name":"Darlington Association on Disability","n":1,"total":49931,"projects":"Accessible Energy Support","url":"https://www.darlingtondisability.org/","loc":"office"}},{"type":"Feature","geometry":{"type":"Point","coordinates":[-1.55434,53.13947]},"properties":{"name":"Derbyshire Districts Citizens Advice Bureau","n":1,"total":356199,"projects":"Age Well Energy Advice","url":"https://www.citizensadvicederbyshiredistricts.org.uk/","loc":"office"}},{"type":"Feature","geometry":{"type":"Point","coordinates":[-2.20415,53.00836]},"properties":{"name":"Disability Solutions West Midlands","n":1,"total":42238,"projects":"Disability Solutions Energy Support","url":"https://disabilitysolutions.org.uk/","loc":"office"}},{"type":"Feature","geometry":{"type":"Point","coordinates":[-0.05494,51.54531]},"properties":{"name":"East End Citizens Advice Bureaux","n":1,"total":491099,"projects":"EastEnd Energy Advice & Empowerment Project","url":"https://eastendcab.org.uk/","loc":"office"}},{"type":"Feature","geometry":{"type":"Point","coordinates":[-1.47094,53.38122]},"properties":{"name":"Element Society","n":1,"total":24688,"projects":"VoltEdge - Energy Saving & Advice Programme","url":"https://www.elementsociety.co.uk/","loc":"office"}},{"type":"Feature","geometry":{"type":"Point","coordinates":[0.47438,50.84007]},"properties":{"name":"Energise Sussex Coast","n":1,"total":188494,"projects":"Energising Communities","url":"https://www.energisesussexcoast.co.uk/","loc":"office"}},{"type":"Feature","geometry":{"type":"Point","coordinates":[-3.02617,53.40893]},"properties":{"name":"Energy Projects Plus","n":1,"total":62864,"projects":"Sustainable Seacombe","url":"https://www.epplus.org.uk/","loc":"area"}},{"type":"Feature","geometry":{"type":"Point","coordinates":[-3.02973,53.41615]},"properties":{"name":"Energy Projects Plus","n":6,"total":2008926,"projects":"Energy Action For Warmth · Warmth For Health · Warm and Well …","url":"https://www.epplus.org.uk/","loc":"office"}},{"type":"Feature","geometry":{"type":"Point","coordinates":[-1.37325,54.90146]},"properties":{"name":"FISCUS North Limited","n":1,"total":253127,"projects":"Warm Up Sunderland","url":"https://www.facebook.com/FISCUSCommunityAdvice/","loc":"office"}},{"type":"Feature","geometry":{"type":"Point","coordinates":[-1.75456,53.79078]},"properties":{"name":"Family Action","n":1,"total":107037,"projects":"Bradford Energy Advice","url":"https://www.family-action.org.uk/","loc":"area"}},{"type":"Feature","geometry":{"type":"Point","coordinates":[-0.07371,53.56985]},"properties":{"name":"Foresight (North East Lincolnshire) Limited","n":1,"total":47027,"projects":"Making best use of my Energy","loc":"office"}},{"type":"Feature","geometry":{"type":"Point","coordinates":[-2.22765,53.48622]},"properties":{"name":"Foundations Independent Living Trust","n":2,"total":541695,"projects":"Warm and Adapted Homes · Warm and Adapted Homes","url":"https://www.foundations.uk.com/how-we-help/foundations-independent-living-trust/","loc":"office"}},{"type":"Feature","geometry":{"type":"Point","coordinates":[-2.44282,53.79857]},"properties":{"name":"Friends of St Nicholas Fields","n":1,"total":49041,"projects":"York Energy Advice and Training","loc":"area"}},{"type":"Feature","geometry":{"type":"Point","coordinates":[-1.062,53.95755]},"properties":{"name":"Friends of St Nicholas Fields","n":1,"total":49042,"projects":"York Energy Advice & Training","url":"https://www.stnicks.org.uk/about-us/","loc":"office"}},{"type":"Feature","geometry":{"type":"Point","coordinates":[-2.74867,54.66213]},"properties":{"name":"Futureproof Cumbria","n":2,"total":1191106,"projects":"Home Energy Made Easy · Cold to Cosy Homes Cumbria","url":"https://futureproofcumbria.org.uk/","loc":"office"}},{"type":"Feature","geometry":{"type":"Point","coordinates":[-0.56419,51.75997]},"properties":{"name":"Grand Union Community Energy","n":1,"total":366200,"projects":"Heating Kings Langley","url":"https://guce.org.uk/","loc":"office"}},{"type":"Feature","geometry":{"type":"Point","coordinates":[-0.07317,53.5714]},"properties":{"name":"Grimsby Community Energy","n":1,"total":126440,"projects":"GCE Community Solar Project","url":"https://grimsbycommunityenergy.coop/","loc":"office"}},{"type":"Feature","geometry":{"type":"Point","coordinates":[-1.14271,52.95057]},"properties":{"name":"Groundwork Five Counties","n":4,"total":1180258,"projects":"Groundwork Five Counties - Green Doctor service · Groundwork Five Counties - Green Doctor service · Groundwork Five Counties - Green Doctor service …","url":"https://www.groundwork.org.uk/fivecounties/","loc":"office"}},{"type":"Feature","geometry":{"type":"Point","coordinates":[-0.10911,51.4993]},"properties":{"name":"Groundwork London","n":6,"total":1484414,"projects":"HEART · EASIE: Energy-Advice Spread through Innovation Engagement · Fuel-poverty advice for Barnet/ Brent (FABB) …","url":"https://www.groundwork.org.uk/hubs/london/","loc":"office"}},{"type":"Feature","geometry":{"type":"Point","coordinates":[-0.12772,51.50741]},"properties":{"name":"Groundwork London","n":1,"total":291151,"projects":"HEART","loc":"area"}},{"type":"Feature","geometry":{"type":"Point","coordinates":[-2.15671,53.61696]},"properties":{"name":"Groundwork Oldham and Rochdale","n":1,"total":75745,"projects":"Energyworks GM","url":"https://www.groundwork.org.uk/hubs/greatermanchester/","loc":"area"}},{"type":"Feature","geometry":{"type":"Point","coordinates":[-1.80317,50.89269]},"properties":{"name":"Groundwork South Trust Limited","n":1,"total":389526,"projects":"SPARK","url":"https://www.groundwork.org.uk/hubs/south/","loc":"area"}},{"type":"Feature","geometry":{"type":"Point","coordinates":[-0.59296,51.50886]},"properties":{"name":"Groundwork South Trust Limited","n":1,"total":44411,"projects":"SAVERS","url":"https://www.groundwork.org.uk/hubs/south/","loc":"area"}},{"type":"Feature","geometry":{"type":"Point","coordinates":[-1.90294,52.47928]},"properties":{"name":"Groundwork West Midlands","n":1,"total":59314,"projects":"There's no place like home","loc":"area"}},{"type":"Feature","geometry":{"type":"Point","coordinates":[-0.33258,51.45259]},"properties":{"name":"Habitats & Heritage","n":2,"total":180714,"projects":"South West London Energy Advice Partnership · SW Leap Fuel Crisis Extension","url":"https://habitatsandheritage.org.uk/","loc":"office"}},{"type":"Feature","geometry":{"type":"Point","coordinates":[-0.21428,51.52421]},"properties":{"name":"Hodan Somali Community","n":1,"total":49384,"projects":"EnergySavers: Empowering Somali and BAME Families","url":"https://www.hodan.org.uk/","loc":"office"}},{"type":"Feature","geometry":{"type":"Point","coordinates":[-1.72891,53.83403]},"properties":{"name":"Inspired Neighbourhoods Charitable Trust","n":1,"total":350080,"projects":"Smart Energy Hub","url":"https://inspiredneighbourhoods.co.uk/#!event-list","loc":"office"}},{"type":"Feature","geometry":{"type":"Point","coordinates":[-2.88793,53.48139]},"properties":{"name":"Knowsley District Citizens Advice Bureau","n":1,"total":178320,"projects":"Knowsley Community Energy Support","url":"https://www.citizensadviceknowsley.org.uk/","loc":"office"}},{"type":"Feature","geometry":{"type":"Point","coordinates":[-2.16076,53.41847]},"properties":{"name":"Lancashire BME Network Ltd","n":1,"total":439313,"projects":"Energy 360","url":"https://lancashirebmenetwork.org.uk/","loc":"area"}},{"type":"Feature","geometry":{"type":"Point","coordinates":[-2.16076,53.41847]},"properties":{"name":"Lancashire Women","n":1,"total":329772,"projects":"Energy Advice for Lancashire Women","url":"https://lancashirewomen.org/","loc":"area"}},{"type":"Feature","geometry":{"type":"Point","coordinates":[-2.36293,53.75252]},"properties":{"name":"Lancashire Women","n":2,"total":1239993,"projects":"Lancashire Women's Energy Advice · Lancashire Women Energy Advice","url":"https://lancashirewomen.org/","loc":"office"}},{"type":"Feature","geometry":{"type":"Point","coordinates":[-1.12576,53.5215]},"properties":{"name":"Live Inclusive","n":2,"total":361115,"projects":"Recharge Energy Advice Project · Recharge","url":"http://www.liveinclusive.co.uk/","loc":"office"}},{"type":"Feature","geometry":{"type":"Point","coordinates":[-2.75224,52.71391]},"properties":{"name":"Marches Energy Advice","n":12,"total":4518977,"projects":"Warmer Derby & Derbyshire · Telford Energy Advice (TEA) · Building Retrofit across the Marches …","url":"https://mea.org.uk/","loc":"office"}},{"type":"Feature","geometry":{"type":"Point","coordinates":[-2.44875,52.6754]},"properties":{"name":"Marches Energy Agency","n":1,"total":36713,"projects":"Telford Energy Advice (TEA)","loc":"area"}},{"type":"Feature","geometry":{"type":"Point","coordinates":[-1.47805,52.92469]},"properties":{"name":"Marches Energy Agency","n":2,"total":324160,"projects":"Warmer Derby & Derbyshire · Warmer Derby & Derbyshire 2 - Extension","loc":"area"}},{"type":"Feature","geometry":{"type":"Point","coordinates":[-1.23687,54.57795]},"properties":{"name":"Middlesbrough Citizens Advice Bureau","n":1,"total":46113,"projects":"Energy Advice Middlesbrough","url":"https://www.mcab.org.uk/","loc":"office"}},{"type":"Feature","geometry":{"type":"Point","coordinates":[-1.23887,54.5355]},"properties":{"name":"Middlesbrough Environment City Trust","n":2,"total":373545,"projects":"Warmth and Well being South Tees · Cosy Homes South Tees 2","url":"https://menvcity.org.uk/","loc":"office"}},{"type":"Feature","geometry":{"type":"Point","coordinates":[-1.07003,54.61783]},"properties":{"name":"Middlesbrough Environment City Trust","n":1,"total":108601,"projects":"Cosy Homes South Tees","url":"https://menvcity.org.uk/","loc":"area"}},{"type":"Feature","geometry":{"type":"Point","coordinates":[-0.79362,52.04081]},"properties":{"name":"Milton Keynes Citizens Advice Bureau","n":1,"total":187490,"projects":"FuPOS - Fuel Poverty Outreach Service","url":"https://www.miltonkeynescab.org.uk/","loc":"office"}},{"type":"Feature","geometry":{"type":"Point","coordinates":[-2.08326,51.06683]},"properties":{"name":"Nadder Community Energy","n":1,"total":70000,"projects":"Nadder Community Energy Project","url":"https://www.nadderce.org.uk/","loc":"office"}},{"type":"Feature","geometry":{"type":"Point","coordinates":[-1.86569,52.45405]},"properties":{"name":"Narthex Sparkhill","n":1,"total":49999,"projects":"Narthex MDA/IAG Energy Support","url":"https://www.narthex.org.uk/","loc":"office"}},{"type":"Feature","geometry":{"type":"Point","coordinates":[-1.62101,54.97384]},"properties":{"name":"National Energy Action","n":1,"total":138809,"projects":"North East, Yorkshire and London","loc":"office"}},{"type":"Feature","geometry":{"type":"Point","coordinates":[-0.74019,52.00147]},"properties":{"name":"National Energy Foundation","n":4,"total":2891444,"projects":"Better Housing Better Health (Phase 2) · Better Housing Better Health West Midlands · Pilot Whole House Retrofit Service …","url":"https://nef.org.uk/","loc":"office"}},{"type":"Feature","geometry":{"type":"Point","coordinates":[-0.75406,52.04302]},"properties":{"name":"National Energy Foundation","n":1,"total":119256,"projects":"Better Housing Better Health","loc":"area"}},{"type":"Feature","geometry":{"type":"Point","coordinates":[1.28768,52.6304]},"properties":{"name":"Norfolk Citizens Advice","n":1,"total":134202,"projects":"Norfolk Energy Collaboration","url":"https://www.ncab.org.uk/","loc":"office"}},{"type":"Feature","geometry":{"type":"Point","coordinates":[-4.02863,51.07326]},"properties":{"name":"North Devon Homes","n":3,"total":538874,"projects":"Integrating heat pumps with solar batteries · Making heat cheaper, smarter and greener - Boxergy · Evaluating solar PV with electric heating","url":"https://www.ndh-ltd.co.uk/","loc":"office"}},{"type":"Feature","geometry":{"type":"Point","coordinates":[-0.11508,51.46471]},"properties":{"name":"North Kensington Community Energy","n":1,"total":485133,"projects":"Pan-London Community Owned Solar PV","url":"https://www.repowering.org.uk/north-kensington-community-energy/","loc":"office"}},{"type":"Feature","geometry":{"type":"Point","coordinates":[-1.44096,55.04155]},"properties":{"name":"North Tyneside Big Local","n":1,"total":48805,"projects":"Draught Includers","url":"https://www.ntbiglocal.org/","loc":"office"}},{"type":"Feature","geometry":{"type":"Point","coordinates":[-1.43792,54.34311]},"properties":{"name":"North Yorkshire Citizens Advice & Law Centre Ltd","n":1,"total":571384,"projects":"Future Energies Project","url":"https://www.cany.org.uk/","loc":"office"}},{"type":"Feature","geometry":{"type":"Point","coordinates":[0.16366,51.47775]},"properties":{"name":"Northumberland County Blind Association","n":1,"total":39329,"projects":"Accessible heating controls","loc":"area"}},{"type":"Feature","geometry":{"type":"Point","coordinates":[-1.68439,55.16852]},"properties":{"name":"Northumberland County Blind Association","n":1,"total":39330,"projects":"Accessible heating controls","url":"https://vision-northumberland.org/","loc":"office"}},{"type":"Feature","geometry":{"type":"Point","coordinates":[0.16366,51.47775]},"properties":{"name":"Northumbrian Citizens Advice Bureau","n":1,"total":296765,"projects":"Redress to Reassess Northumberland","loc":"area"}},{"type":"Feature","geometry":{"type":"Point","coordinates":[-1.1499,52.94268]},"properties":{"name":"Nottingham Energy Partnership","n":3,"total":997232,"projects":"Conservation Retrofit Catalyst · The Home Energy Advice Team Hub · Conservation Retrofit Catalyst","url":"https://nottenergy.com/","loc":"office"}},{"type":"Feature","geometry":{"type":"Point","coordinates":[1.29834,52.63728]},"properties":{"name":"Opening Doors","n":1,"total":47163,"projects":"Energy Champions Project","url":"https://www.openingdoors.org.uk/","loc":"office"}},{"type":"Feature","geometry":{"type":"Point","coordinates":[-3.05216,52.86042]},"properties":{"name":"Oswestry Community Action","n":1,"total":47288,"projects":"Saving energy - North Shropshire","url":"https://qube-oca.org.uk/","loc":"office"}},{"type":"Feature","geometry":{"type":"Point","coordinates":[-0.10827,51.56426]},"properties":{"name":"Outlandish Co-operative Limited","n":2,"total":191132,"projects":"Advanced reporting for community energy groups · Digital Tooling for Retrofit Case Management","url":"https://outlandish.com/","loc":"office"}},{"type":"Feature","geometry":{"type":"Point","coordinates":[-4.15714,50.36947]},"properties":{"name":"PEC Renewables","n":2,"total":924096,"projects":"Plymouth Solar Pipeline Campaign · Chelson Meadow Community Solar","url":"https://plymouthenergycommunity.com/about/pec-renewables","loc":"office"}},{"type":"Feature","geometry":{"type":"Point","coordinates":[-4.15714,50.36947]},"properties":{"name":"PEC Trust","n":7,"total":2104280,"projects":"Warm Homes · Kings Tamerton Affordable Net Zero Homes · Energy Team …","url":"https://plymouthenergycommunity.com/","loc":"office"}},{"type":"Feature","geometry":{"type":"Point","coordinates":[-4.14207,50.37001]},"properties":{"name":"PEC Trust","n":2,"total":755050,"projects":"Energy Team · The Warm Homes project","loc":"area"}},{"type":"Feature","geometry":{"type":"Point","coordinates":[-2.21412,53.4835]},"properties":{"name":"People Powered Retrofit","n":1,"total":289392,"projects":"Community of Practice for Community Retrofit","url":"https://retrofit.coop/","loc":"office"}},{"type":"Feature","geometry":{"type":"Point","coordinates":[-0.30221,52.55789]},"properties":{"name":"Peterborough Environment City Trust","n":4,"total":1121572,"projects":"Cambridgeshire Home Energy Support Services · Cambridgeshire Home Energy Support Services Plus · HEART Warming: Expanding Lincolnshire Energy Support …","url":"https://www.pect.org.uk/","loc":"office"}},{"type":"Feature","geometry":{"type":"Point","coordinates":[-0.07698,51.49965]},"properties":{"name":"Pure Leapfrog","n":1,"total":365094,"projects":"Energy Advice for Mortgage Prisoners","url":"https://www.pureleapfrog.org/","loc":"office"}},{"type":"Feature","geometry":{"type":"Point","coordinates":[-3.068,51.01408]},"properties":{"name":"Re:work Ltd","n":1,"total":36769,"projects":"Keeping Warm this Winter","url":"https://reworkltd.org.uk/","loc":"office"}},{"type":"Feature","geometry":{"type":"Point","coordinates":[-0.11508,51.46471]},"properties":{"name":"Repowering Limited","n":4,"total":1307348,"projects":"Repowering Homes · Urban community solar for Londoners · Repowering Homes: Scaling Retrofit for Blocks …","url":"https://www.repowering.org.uk/","loc":"office"}},{"type":"Feature","geometry":{"type":"Point","coordinates":[-0.1408,51.52544]},"properties":{"name":"Research Institute for Disabled Consumers","n":2,"total":267383,"projects":"How accessible are switching services? · Enabling Inclusive Innovation & Sustainable Choice","url":"https://www.ridc.org.uk/","loc":"office"}},{"type":"Feature","geometry":{"type":"Point","coordinates":[-1.35474,53.43072]},"properties":{"name":"Rotherham Federation","n":1,"total":217204,"projects":"Rotherham Energy Angels","loc":"area"}},{"type":"Feature","geometry":{"type":"Point","coordinates":[-0.12772,51.50741]},"properties":{"name":"Royal Association for Deaf People","n":1,"total":120547,"projects":"Deaf Energy Smart","loc":"area"}},{"type":"Feature","geometry":{"type":"Point","coordinates":[-0.09874,51.5321]},"properties":{"name":"Royal Association for Deaf People","n":2,"total":197261,"projects":"Deaf Energy Smart · Deaf Smart Energy","url":"https://royaldeaf.org.uk/","loc":"office"}},{"type":"Feature","geometry":{"type":"Point","coordinates":[-1.98034,52.58622]},"properties":{"name":"Ryecroft NRC","n":1,"total":40600,"projects":"Energy Resilience Project","loc":"area"}},{"type":"Feature","geometry":{"type":"Point","coordinates":[-1.84472,52.48671]},"properties":{"name":"Saltley Community Association","n":2,"total":221733,"projects":"Warm and well in East Birmingham · Supporting vulnerable energy consumers in Saltley","url":"http://saltleycommunitycentre.org/","loc":"office"}},{"type":"Feature","geometry":{"type":"Point","coordinates":[-3.0279,53.47424]},"properties":{"name":"Sefton Carers Centre","n":1,"total":246053,"projects":"Energy Support for Carers","url":"https://www.sefton-carers.org.uk/","loc":"office"}},{"type":"Feature","geometry":{"type":"Point","coordinates":[-2.97358,53.50224]},"properties":{"name":"Sefton OPERA (Older Persons Enabling Resource and Action)","n":1,"total":118472,"projects":"Sefton 'Silver Savers' Roadshow","loc":"area"}},{"type":"Feature","geometry":{"type":"Point","coordinates":[-2.25381,51.86069]},"properties":{"name":"Severn Wye Energy Agency","n":11,"total":3336473,"projects":"Warm & Well - Home Energy Advice · Energy Advocate - South Gloucestershire · Energy Advocate - Herefordshire …","url":"https://severnwye.org.uk/project/warm-and-well/","loc":"office"}},{"type":"Feature","geometry":{"type":"Point","coordinates":[0.00624,51.48571]},"properties":{"name":"South East London Community Energy","n":1,"total":100137,"projects":"Southeast Social Solar Scale Up","url":"https://selce.org.uk/","loc":"office"}},{"type":"Feature","geometry":{"type":"Point","coordinates":[-3.70935,50.43147]},"properties":{"name":"South Hams Citizens Advice Bureau","n":4,"total":1147352,"projects":"Heat well for Less · RESET: Devon Energy Advice · Em-POWER …","url":"https://southhamscab.org.uk/","loc":"office"}},{"type":"Feature","geometry":{"type":"Point","coordinates":[-3.10581,51.01348]},"properties":{"name":"Southend Carers","n":1,"total":49948,"projects":"Carers Outreach, Advocacy & Support Together","url":"https://www.southendcarers.co.uk/","loc":"office"}},{"type":"Feature","geometry":{"type":"Point","coordinates":[-1.86337,52.89894]},"properties":{"name":"Southern Staffordshire Community Energy","n":2,"total":220280,"projects":"Solar for Social Impact Expansion · Staffordshire Energetic Communities","url":"https://staffscommunityenergy.org.uk/","loc":"office"}},{"type":"Feature","geometry":{"type":"Point","coordinates":[-1.3359,53.43987]},"properties":{"name":"Speakup Self Advocacy","n":1,"total":78504,"projects":"Prioritise Me","url":"https://www.speakup.org.uk/","loc":"office"}},{"type":"Feature","geometry":{"type":"Point","coordinates":[-1.23682,54.57643]},"properties":{"name":"Stockton and District Advice & Information Service","n":1,"total":367437,"projects":"Warm Up North","url":"https://www.stockton-cab.co.uk/","loc":"area"}},{"type":"Feature","geometry":{"type":"Point","coordinates":[1.14727,52.06014]},"properties":{"name":"Suffolk Refugee Support","n":1,"total":48780,"projects":"Refugee Energy Project Suffolk","url":"https://suffolkrefugee.org.uk/","loc":"office"}},{"type":"Feature","geometry":{"type":"Point","coordinates":[-1.78361,51.56177]},"properties":{"name":"Swindon and District Citizens Advice Bureau","n":1,"total":187996,"projects":"Swindon Energy Mentors","url":"https://www.citizensadviceswindon.org.uk/","loc":"office"}},{"type":"Feature","geometry":{"type":"Point","coordinates":[-1.29152,50.69962]},"properties":{"name":"The Footprint Trust charity","n":1,"total":93470,"projects":"Warm Island - Energy Saving Guidance","url":"https://footprint-trust.co.uk/","loc":"office"}},{"type":"Feature","geometry":{"type":"Point","coordinates":[-0.38837,51.2949]},"properties":{"name":"The Footprint Trust charity","n":1,"total":76000,"projects":"Warm Island - Home Energy help","url":"https://footprint-trust.co.uk/","loc":"area"}},{"type":"Feature","geometry":{"type":"Point","coordinates":[-2.13204,52.58647]},"properties":{"name":"The Haven Wolverhampton","n":1,"total":130510,"projects":"Increasing energy awareness & resilience","url":"https://www.havenrefuge.org.uk/","loc":"office"}},{"type":"Feature","geometry":{"type":"Point","coordinates":[-0.74343,51.33853]},"properties":{"name":"The Hope Hub","n":1,"total":49773,"projects":"Energy Saving at The Hope Hub","url":"https://thehopehub.org.uk/","loc":"office"}},{"type":"Feature","geometry":{"type":"Point","coordinates":[-2.40024,53.08279]},"properties":{"name":"The National House Project","n":1,"total":191364,"projects":"Care leavers as Energy Champions - NHP","url":"https://thehouseproject.org/","loc":"office"}},{"type":"Feature","geometry":{"type":"Point","coordinates":[-2.1323,52.58742]},"properties":{"name":"The Refugee and Migrant Centre","n":1,"total":86722,"projects":"Small Changes = Smarter Energy","url":"https://rmcentre.org.uk/contact/","loc":"office"}},{"type":"Feature","geometry":{"type":"Point","coordinates":[-2.21412,53.4835]},"properties":{"name":"The Society for the Reduction of Carbon Ltd","n":1,"total":168683,"projects":"Socialising heat pumps' flexibility benefits","url":"https://carbon.coop/about/","loc":"office"}},{"type":"Feature","geometry":{"type":"Point","coordinates":[-2.77508,51.47189]},"properties":{"name":"Torus Foundation","n":1,"total":165045,"projects":"Supportive Energy","loc":"area"}},{"type":"Feature","geometry":{"type":"Point","coordinates":[-2.98265,53.40861]},"properties":{"name":"Torus Foundation","n":2,"total":478076,"projects":"Supportive Energy- phase two · Torus Foundation Supportive Energy","url":"https://torusfoundation.org.uk/","loc":"office"}},{"type":"Feature","geometry":{"type":"Point","coordinates":[-2.98005,53.46213]},"properties":{"name":"Venus Working Creatively with Young Women","n":1,"total":88101,"projects":"Energy Support Project","url":"https://www.venuscharity.org/contact","loc":"office"}},{"type":"Feature","geometry":{"type":"Point","coordinates":[-2.97358,53.50224]},"properties":{"name":"Venus Working Creatively with Young Women","n":1,"total":88100,"projects":"Energy Support Project","loc":"area"}},{"type":"Feature","geometry":{"type":"Point","coordinates":[-2.61595,53.38583]},"properties":{"name":"Warrington Disability Partnership","n":1,"total":391768,"projects":"Energy Saving Support Service","url":"https://www.disabilitypartnership.org.uk/","loc":"office"}},{"type":"Feature","geometry":{"type":"Point","coordinates":[-2.48166,53.24691]},"properties":{"name":"Weaver Vale Housing Trust","n":1,"total":186348,"projects":"Energy Advice to Reduce Fuel Poverty","url":"https://www.wvht.co.uk/contact-us","loc":"office"}},{"type":"Feature","geometry":{"type":"Point","coordinates":[-4.00185,50.74073]},"properties":{"name":"West Devon Community & Voluntary Services","n":2,"total":296511,"projects":"Warmer Healthier Homes SW Devon · Warmer Healthier Homes 2","url":"https://westdevoncvs.org.uk/","loc":"office"}},{"type":"Feature","geometry":{"type":"Point","coordinates":[-2.62969,53.54554]},"properties":{"name":"Wigan Warriors Community Association","n":1,"total":28433,"projects":"Energy champions programme","loc":"area"}},{"type":"Feature","geometry":{"type":"Point","coordinates":[-2.65332,53.54417]},"properties":{"name":"Wigan Warriors Community Foundation","n":1,"total":28420,"projects":"Energy Champions Programme","url":"https://www.wiganwarriors.com/community-education","loc":"office"}},{"type":"Feature","geometry":{"type":"Point","coordinates":[-1.86806,52.53636]},"properties":{"name":"Witton Lodge Community Association","n":1,"total":1522200,"projects":"Birmingham Community Action Network : Energy (B:CAN)","url":"https://wittonlodge.org.uk/","loc":"office"}},{"type":"Feature","geometry":{"type":"Point","coordinates":[-1.50121,52.41351]},"properties":{"name":"Working Actively To Change Hillfields Ltd","n":1,"total":96145,"projects":"Coventry Community Energy Champions","url":"https://www.watchcharity.org.uk/","loc":"office"}},{"type":"Feature","geometry":{"type":"Point","coordinates":[-0.60894,51.25271]},"properties":{"name":"Zero Carbon Guildford","n":1,"total":586402,"projects":"Home Energy Advice Team (HEAT)","url":"https://www.zerocarbonguildford.org/","loc":"office"}},{"type":"Feature","geometry":{"type":"Point","coordinates":[-1.55114,53.98486]},"properties":{"name":"Zero Carbon Harrogate","n":1,"total":125422,"projects":"Retrofit Training and Engagement Programme","loc":"office"}},{"type":"Feature","geometry":{"type":"Point","coordinates":[-1.40431,50.90489]},"properties":{"name":"the Environment Centre","n":1,"total":43434,"projects":"Raising Standards for Southampton Tenants","url":"https://environmentcentre.com/","loc":"area"}},{"type":"Feature","geometry":{"type":"Point","coordinates":[-2.1511,53.73195]},"properties":{"name":"the Environment Centre (tEC)","n":1,"total":173183,"projects":"Switched on Portmouth","loc":"area"}}]}