{"type":"FeatureCollection","features":[{"type":"Feature","geometry":{"type":"Point","coordinates":[-4.05657,51.07976]},"properties":{"name":"361 Energy","n":1,"total":266394,"projects":"Warmer Homes for Northern Devon","url":"https://361energy.org/","loc":"office"}},{"type":"Feature","geometry":{"type":"Point","coordinates":[-1.83269,52.18547]},"properties":{"name":"Act on Energy","n":5,"total":5075718,"projects":"Warmer Homes West Midlands phase 3 · Warmer Homes West Midlands · Warmth in Warwickshire and Worcestershire …","url":"https://actonenergy.org.uk/","loc":"office"}},{"type":"Feature","geometry":{"type":"Point","coordinates":[-1.43579,54.97538]},"properties":{"name":"Age Concern Tyneside South","n":1,"total":49568,"projects":"Age Concern Tyneside South","url":"https://ac-ts.org.uk/","loc":"area"}},{"type":"Feature","geometry":{"type":"Point","coordinates":[-1.42659,54.99654]},"properties":{"name":"Age Concern Tyneside South","n":3,"total":203235,"projects":"Scared to put my heating on! · Don't use your energy worrying! · My House is Cold Too","url":"https://ac-ts.org.uk/","loc":"office"}},{"type":"Feature","geometry":{"type":"Point","coordinates":[-1.48259,53.55352]},"properties":{"name":"Age UK Barnsley","n":1,"total":228203,"projects":"Smart Solar in Barnsley","url":"https://www.ageuk.org.uk/barnsley/","loc":"area"}},{"type":"Feature","geometry":{"type":"Point","coordinates":[-2.44515,53.57934]},"properties":{"name":"Age UK Bolton","n":1,"total":210693,"projects":"Energy Advice Service","url":"https://www.ageuk.org.uk/bolton/","loc":"area"}},{"type":"Feature","geometry":{"type":"Point","coordinates":[-0.05296,51.53142]},"properties":{"name":"Age UK East London","n":2,"total":99773,"projects":"Warm and Well at home · Warm and Well at home","url":"https://www.ageuk.org.uk/eastlondon/","loc":"office"}},{"type":"Feature","geometry":{"type":"Point","coordinates":[-0.11527,51.4489]},"properties":{"name":"Age UK Lambeth","n":2,"total":490345,"projects":"Lambeth Energy Boost · Lambeth Energy Boost","url":"https://www.ageuk.org.uk/lambeth/","loc":"area"}},{"type":"Feature","geometry":{"type":"Point","coordinates":[-2.93109,54.8948]},"properties":{"name":"Age UK North Cumbria","n":1,"total":103406,"projects":"Warm and Well","url":"https://www.ageuk.org.uk/northcumbria/","loc":"office"}},{"type":"Feature","geometry":{"type":"Point","coordinates":[-1.3341,54.13478]},"properties":{"name":"Age UK North Yorkshire Coast and Moors","n":1,"total":292808,"projects":"Energy Your Way","url":"https://www.ageuk.org.uk/northyorkshirecoastmoors/","loc":"area"}},{"type":"Feature","geometry":{"type":"Point","coordinates":[-1.17231,52.96036]},"properties":{"name":"Age UK Nottingham and Nottinghamshire","n":3,"total":2033098,"projects":"Warm & Wise · Warm & Wise · Warm & Wise","url":"https://www.ageuk.org.uk/notts/","loc":"area"}},{"type":"Feature","geometry":{"type":"Point","coordinates":[-1.46854,53.38251]},"properties":{"name":"Age UK Sheffield","n":1,"total":63740,"projects":"Older Sheffielders WIN","url":"https://www.ageuk.org.uk/sheffield/","loc":"area"}},{"type":"Feature","geometry":{"type":"Point","coordinates":[-1.54,53.39044]},"properties":{"name":"Age UK Sheffield","n":1,"total":74574,"projects":"Reaching Out Sheffield","url":"https://www.ageuk.org.uk/sheffield/","loc":"area"}},{"type":"Feature","geometry":{"type":"Point","coordinates":[-1.77755,52.41275]},"properties":{"name":"Age UK Solihull","n":1,"total":49696,"projects":"Solihull Home Energy Advice Project","loc":"area"}},{"type":"Feature","geometry":{"type":"Point","coordinates":[-1.71826,52.41305]},"properties":{"name":"Age UK Solihull","n":1,"total":49937,"projects":"Solihull Support for Warmth Project","url":"https://www.ageuk.org.uk/solihull/","loc":"area"}},{"type":"Feature","geometry":{"type":"Point","coordinates":[-2.74608,54.32784]},"properties":{"name":"Age UK South Cumbria","n":1,"total":146502,"projects":"Energy Advice and Support Project","url":"https://www.ageuk.org.uk/southcumbria/","loc":"office"}},{"type":"Feature","geometry":{"type":"Point","coordinates":[-1.41195,53.65581]},"properties":{"name":"Age UK Wakefield District","n":1,"total":267367,"projects":"Warmer Homes for Wakefield's Older People","url":"https://www.ageuk.org.uk/wakefielddistrict/","loc":"area"}},{"type":"Feature","geometry":{"type":"Point","coordinates":[-0.00605,51.59871]},"properties":{"name":"Age UK Waltham Forest","n":1,"total":49769,"projects":"Energy In The Home","url":"https://www.ageuk.org.uk/walthamforest/","loc":"area"}},{"type":"Feature","geometry":{"type":"Point","coordinates":[-2.88734,53.39502]},"properties":{"name":"Alt Valley Community Trust","n":1,"total":158000,"projects":"Energy Champions - Help for Elderly Persons","url":"https://altvalley.co.uk/","loc":"area"}},{"type":"Feature","geometry":{"type":"Point","coordinates":[-2.89863,53.45591]},"properties":{"name":"Alt Valley Community Trust","n":1,"total":65055,"projects":"Energy advice and support for elderly","url":"https://altvalley.co.uk/","loc":"office"}},{"type":"Feature","geometry":{"type":"Point","coordinates":[-0.67224,50.78322]},"properties":{"name":"Arun and Chichester Citizens Advice Bureau","n":2,"total":739757,"projects":"TFPT - Home Improvement Support · Tackling fuel poverty together in Sussex","url":"https://arunchichestercab.org.uk/","loc":"office"}},{"type":"Feature","geometry":{"type":"Point","coordinates":[-0.75579,50.88246]},"properties":{"name":"Arun and Chichester Citizens Advice Bureau","n":1,"total":508004,"projects":"Tackling Fuel Poverty Together Programme - Expansion","url":"https://arunchichestercab.org.uk/","loc":"area"}},{"type":"Feature","geometry":{"type":"Point","coordinates":[-0.14287,51.49588]},"properties":{"name":"Ashden Climate Solutions","n":1,"total":89753,"projects":"Energise Grimsby: Solar Streets","url":"https://ashden.org/","loc":"office"}},{"type":"Feature","geometry":{"type":"Point","coordinates":[-2.58569,51.91073]},"properties":{"name":"Ashfield Citizens Advice Bureau","n":1,"total":49960,"projects":"Ashfield Energy Efficiency","url":"https://www.ashfieldca.org.uk/","loc":"area"}},{"type":"Feature","geometry":{"type":"Point","coordinates":[-1.54637,53.53174]},"properties":{"name":"Barnsley & District Citizens Advice Bureau","n":1,"total":137764,"projects":"Barnsley Energy Advice and Training Service","url":"https://barnsleycab.org.uk/","loc":"area"}},{"type":"Feature","geometry":{"type":"Point","coordinates":[-0.96586,53.33619]},"properties":{"name":"Bassetlaw Citizens Advice Bureau","n":2,"total":770724,"projects":"North Nottinghamshire Energy Advice Team (NNEAT) · Be Savvy - Be Energy Smart!","url":"https://www.citizensadvice.org.uk/about-us/contact-us/local-citizens-advice/0014K000009EMIhQAO/","loc":"area"}},{"type":"Feature","geometry":{"type":"Point","coordinates":[-2.93757,51.11217]},"properties":{"name":"Bath and West Community Energy","n":1,"total":499588,"projects":"Bath and West Community Wind Farm","url":"https://www.bwce.coop/","loc":"area"}},{"type":"Feature","geometry":{"type":"Point","coordinates":[-2.36743,51.37875]},"properties":{"name":"Bath and West Community Energy","n":2,"total":1004168,"projects":"BWCE Home Energy - Continuity · Fairy Hill Solar Farm","url":"https://www.bwce.coop/","loc":"office"}},{"type":"Feature","geometry":{"type":"Point","coordinates":[-2.03317,52.68995]},"properties":{"name":"Beat the Cold","n":1,"total":227012,"projects":"Smart solar in Cannock","loc":"area"}},{"type":"Feature","geometry":{"type":"Point","coordinates":[-2.15101,53.03881]},"properties":{"name":"Beat the Cold","n":3,"total":504960,"projects":"Staffs Frailty Hub - Affordable Warmth · Smart Solar in Cannock · Staffs Frailty Hub - Affordable Warmth","url":"https://www.beatcold.org.uk/","loc":"office"}},{"type":"Feature","geometry":{"type":"Point","coordinates":[-0.10827,51.56426]},"properties":{"name":"Big Issue Trust","n":1,"total":277500,"projects":"Fighting Fuel Poverty","url":"https://www.bigissue.com/invest/big-issue-invest-trust/","loc":"office"}},{"type":"Feature","geometry":{"type":"Point","coordinates":[-1.86981,52.49269]},"properties":{"name":"Birmingham Citizens Advice Bureau Service Limited","n":1,"total":87132,"projects":"Birmingham Energy Affordability Project","url":"https://bcabs.org.uk/","loc":"area"}},{"type":"Feature","geometry":{"type":"Point","coordinates":[-1.90294,52.47928]},"properties":{"name":"Birmingham Disability Resource Centre","n":1,"total":220903,"projects":"Warm, Safe and Sound Project","url":"https://www.disability.co.uk/","loc":"area"}},{"type":"Feature","geometry":{"type":"Point","coordinates":[-1.86981,52.49269]},"properties":{"name":"Birmingham Disability Resource Centre","n":2,"total":273481,"projects":"Warmer Birmingham · Warm, Safe and Sound Programme","url":"https://www.disability.co.uk/","loc":"area"}},{"type":"Feature","geometry":{"type":"Point","coordinates":[-2.18593,53.07577]},"properties":{"name":"Blackbird Leys Neighbourhood Support Scheme Operating as Agnes Smith Advice Centre","n":1,"total":38165,"projects":"Money and Power: Reducing Fuel Poverty","loc":"area"}},{"type":"Feature","geometry":{"type":"Point","coordinates":[-1.90294,52.47928]},"properties":{"name":"Bourneville Village Trust","n":1,"total":379137,"projects":"Birmingham Fuel Poverty Alliance","loc":"area"}},{"type":"Feature","geometry":{"type":"Point","coordinates":[-1.86981,52.49269]},"properties":{"name":"Bournville Village Trust","n":1,"total":378135,"projects":"Bournville Village Trust","url":"https://www.bvt.org.uk/","loc":"area"}},{"type":"Feature","geometry":{"type":"Point","coordinates":[-2.437,51.54202]},"properties":{"name":"Bristol Energy Cooperative","n":2,"total":462912,"projects":"Springs Farm · Great Western Air Ambulance Charity Solar","url":"https://bristolenergy.coop/","loc":"area"}},{"type":"Feature","geometry":{"type":"Point","coordinates":[1.29687,51.12785]},"properties":{"name":"Bromley by Bow Centre","n":1,"total":269195,"projects":"Empower You Too","loc":"area"}},{"type":"Feature","geometry":{"type":"Point","coordinates":[0.04203,51.38141]},"properties":{"name":"Bromley by Bow Centre","n":5,"total":1670156,"projects":"PowerBank · People Powered 2 · Empower You Too …","url":"https://www.bbbc.org.uk/health-centres/bromley-by-bow-health-centre/","loc":"area"}},{"type":"Feature","geometry":{"type":"Point","coordinates":[-1.55026,53.8007]},"properties":{"name":"Burmantofts Community Projects","n":1,"total":355737,"projects":"Money Buddies Energy Plus","loc":"area"}},{"type":"Feature","geometry":{"type":"Point","coordinates":[-1.51327,53.84256]},"properties":{"name":"Burmantofts Community Projects","n":2,"total":990824,"projects":"Energy Buddies · Money Buddies Energy Plus","url":"https://www.burmantoftscommunityprojects.org/","loc":"area"}},{"type":"Feature","geometry":{"type":"Point","coordinates":[-0.19372,51.45296]},"properties":{"name":"CREW Energy","n":1,"total":41681,"projects":"Solar for All","url":"https://www.crewenergy.london/","loc":"area"}},{"type":"Feature","geometry":{"type":"Point","coordinates":[0.2771,52.46547]},"properties":{"name":"Cambridgeshire ACRE","n":1,"total":304111,"projects":"CHESS-3","url":"https://cambsacre.org.uk/","loc":"office"}},{"type":"Feature","geometry":{"type":"Point","coordinates":[-1.51327,53.84256]},"properties":{"name":"Canopy Housing Project Ltd","n":1,"total":200000,"projects":"Canopy Community Retrofit","url":"https://www.canopyhousing.org/","loc":"area"}},{"type":"Feature","geometry":{"type":"Point","coordinates":[-2.44898,53.68888]},"properties":{"name":"Care Network (Blackburn with Darwen) Ltd","n":1,"total":49909,"projects":"Warm & Tariff Checked Homes (WaTCH)","url":"https://www.carenetwork.org.uk/about-us","loc":"area"}},{"type":"Feature","geometry":{"type":"Point","coordinates":[-2.25983,53.48374]},"properties":{"name":"Caritas Diocese of Salford","n":1,"total":249658,"projects":"Caritas Energy Advice Service (Greater Manchester)","url":"https://www.caritassalford.org.uk/","loc":"office"}},{"type":"Feature","geometry":{"type":"Point","coordinates":[-2.35405,53.49487]},"properties":{"name":"Caritas Diocese of Salford","n":2,"total":472245,"projects":"Caritas Energy Advice Service · Caritas Energy Advice Service","url":"https://www.caritassalford.org.uk/","loc":"area"}},{"type":"Feature","geometry":{"type":"Point","coordinates":[-2.265,53.00394]},"properties":{"name":"Caudwell Children","n":1,"total":390806,"projects":"Keeping Disabled Children Warm","url":"https://www.caudwellchildren.com/","loc":"office"}},{"type":"Feature","geometry":{"type":"Point","coordinates":[-4.13478,50.39157]},"properties":{"name":"Centre for Sustainable Energy","n":1,"total":163518,"projects":"Futureproof advice support","url":"https://www.cse.org.uk/","loc":"area"}},{"type":"Feature","geometry":{"type":"Point","coordinates":[-2.93757,51.11217]},"properties":{"name":"Centre for Sustainable Energy","n":1,"total":80807,"projects":"Home Energy Advice for Rural Tenants (project operating across Somerset)","url":"https://www.cse.org.uk/","loc":"area"}},{"type":"Feature","geometry":{"type":"Point","coordinates":[-2.35929,51.3828]},"properties":{"name":"Centre for Sustainable Energy","n":1,"total":191000,"projects":"ABLE (Assisting B&NES on Local Energy","url":"https://www.cse.org.uk/","loc":"area"}},{"type":"Feature","geometry":{"type":"Point","coordinates":[-2.59248,51.4589]},"properties":{"name":"Centre for Sustainable Energy","n":13,"total":4341347,"projects":"Home Visit Advanced · Energy advice thrives · Future Energy Landscapes - empowering communities …","url":"https://www.cse.org.uk/","loc":"office"}},{"type":"Feature","geometry":{"type":"Point","coordinates":[-0.98605,51.67885]},"properties":{"name":"Centre for Sustainable Energy","n":1,"total":48937,"projects":"Emergency Caseworkers support","loc":"area"}},{"type":"Feature","geometry":{"type":"Point","coordinates":[-3.56471,50.86089]},"properties":{"name":"Churches Housing Action Team","n":1,"total":248717,"projects":"Mid Devon Energy Partnership","url":"https://www.chatmid.org/","loc":"area"}},{"type":"Feature","geometry":{"type":"Point","coordinates":[-2.93908,53.4263]},"properties":{"name":"Citizen Outreach Coalition","n":1,"total":122306,"projects":"Energy Savings Awareness Campaign","url":"https://citizenoutreachcoalition.com/about/our-partners/","loc":"office"}},{"type":"Feature","geometry":{"type":"Point","coordinates":[0.55938,50.85345]},"properties":{"name":"Citizens Advice 1066","n":1,"total":499544,"projects":"Household Energy Monitoring And Support (HEMAS)","url":"https://www.citizensadvice1066.co.uk/","loc":"office"}},{"type":"Feature","geometry":{"type":"Point","coordinates":[-1.82829,53.84715]},"properties":{"name":"Citizens Advice Bradford & Airedale and Bradford Law Centre","n":1,"total":315223,"projects":"Energy Support for Vulnerable Clients","url":"https://www.citizensadvice.org.uk/local/bradford-airedale/","loc":"area"}},{"type":"Feature","geometry":{"type":"Point","coordinates":[-2.44515,53.57934]},"properties":{"name":"Citizens Advice Bury & Bolton","n":1,"total":478600,"projects":"Making Ends Meet","url":"https://www.cabb.org.uk/","loc":"area"}},{"type":"Feature","geometry":{"type":"Point","coordinates":[-1.96053,53.716]},"properties":{"name":"Citizens Advice Calderdale","n":1,"total":69471,"projects":"Keeping Calderdale Cosy","url":"https://calderdalecab.org.uk/","loc":"area"}},{"type":"Feature","geometry":{"type":"Point","coordinates":[-2.52589,53.1894]},"properties":{"name":"Citizens Advice Cheshire West","n":2,"total":451582,"projects":"Energy for Life · Energy for Life","url":"https://www.citizensadvicecw.org.uk/","loc":"office"}},{"type":"Feature","geometry":{"type":"Point","coordinates":[-4.90904,50.32841]},"properties":{"name":"Citizens Advice Cornwall","n":1,"total":97604,"projects":"Power House Project","url":"https://citizensadvicecornwall.org.uk/","loc":"area"}},{"type":"Feature","geometry":{"type":"Point","coordinates":[-1.74777,54.70551]},"properties":{"name":"Citizens Advice County Durham","n":4,"total":1030243,"projects":"Energy: Advice, Engagement, Support · County Durham Social Landlord Tenants Project · Energy Advice - Right Place, Right Time …","url":"https://www.citizensadvicecd.org.uk/","loc":"area"}},{"type":"Feature","geometry":{"type":"Point","coordinates":[-1.55177,54.53978]},"properties":{"name":"Citizens Advice Darlington, Redcar and Cleveland","n":1,"total":191109,"projects":"Energy Focus Local","url":"https://www.citizensadvicedrc.org.uk/","loc":"area"}},{"type":"Feature","geometry":{"type":"Point","coordinates":[1.4619,52.23913]},"properties":{"name":"Citizens Advice East Suffolk","n":1,"total":48938,"projects":"Fighting Fuel Poverty","url":"https://citizensadviceeastsuffolk.org.uk/","loc":"area"}},{"type":"Feature","geometry":{"type":"Point","coordinates":[0.38036,51.51496]},"properties":{"name":"Citizens Advice Essex","n":2,"total":748904,"projects":"Warm Start Essex · Warm Start Plus","url":"https://citizensadviceessex.org.uk/","loc":"area"}},{"type":"Feature","geometry":{"type":"Point","coordinates":[-2.91853,53.78993]},"properties":{"name":"Citizens Advice Fylde","n":1,"total":48632,"projects":"Fylde Energy","url":"https://www.citizensadvicefylde.org.uk/","loc":"area"}},{"type":"Feature","geometry":{"type":"Point","coordinates":[-1.69232,54.93113]},"properties":{"name":"Citizens Advice Gateshead","n":1,"total":596605,"projects":"Spectrum of Support","url":"https://citizensadvicegateshead.org.uk/","loc":"area"}},{"type":"Feature","geometry":{"type":"Point","coordinates":[-0.4411,51.53977]},"properties":{"name":"Citizens Advice Hillingdon","n":2,"total":111509,"projects":"Heat 4 Hillingdon · Heat 4 Hillingdon","url":"https://www.hillingdoncab.org.uk/","loc":"area"}},{"type":"Feature","geometry":{"type":"Point","coordinates":[-0.95141,52.95359]},"properties":{"name":"Citizens Advice LeicesterShire","n":2,"total":212588,"projects":"Leicestershire Energy Advice Service (LEAS) · Leicestershire Energy Support","url":"https://citizensadviceleicestershire.org/","loc":"office"}},{"type":"Feature","geometry":{"type":"Point","coordinates":[-0.54904,53.21979]},"properties":{"name":"Citizens Advice Lincoln & Lindsey","n":1,"total":241161,"projects":"EnergyHelp","url":"https://www.citizensadvicelincolnandlindsey.org.uk/","loc":"area"}},{"type":"Feature","geometry":{"type":"Point","coordinates":[-2.88734,53.39502]},"properties":{"name":"Citizens Advice Liverpool","n":1,"total":772091,"projects":"Liverpool Energy Advice and Support Project","url":"https://www.citizensadviceliverpool.org.uk/","loc":"area"}},{"type":"Feature","geometry":{"type":"Point","coordinates":[-2.24528,53.47894]},"properties":{"name":"Citizens Advice Manchester","n":1,"total":89200,"projects":"Switched On - Young People's Energy Advice","url":"https://www.citizensadvicemanchester.org.uk/","loc":"area"}},{"type":"Feature","geometry":{"type":"Point","coordinates":[-0.02717,52.97614]},"properties":{"name":"Citizens Advice Mid Lincolnshire","n":3,"total":172723,"projects":"EnergyWell · Energy Advice · The Energy Saver Project","url":"https://camidlincs.org.uk/","loc":"office"}},{"type":"Feature","geometry":{"type":"Point","coordinates":[-1.81531,52.88382]},"properties":{"name":"Citizens Advice Mid Mercia","n":1,"total":441435,"projects":"Energy Resilience Alliance: Empowering Vulnerable Consumers","url":"https://www.citizensadvicemidmercia.org.uk/","loc":"area"}},{"type":"Feature","geometry":{"type":"Point","coordinates":[-1.3341,54.13478]},"properties":{"name":"Citizens Advice Mid-North Yorkshire","n":3,"total":335921,"projects":"Warm & Well North Yorkshire · Warm & Well in North Yorkshire · Warm & Well North Yorkshire","url":"https://www.cany.org.uk/","loc":"area"}},{"type":"Feature","geometry":{"type":"Point","coordinates":[-2.76894,54.04322]},"properties":{"name":"Citizens Advice North Lancashire","n":1,"total":294499,"projects":"North Lancashire Energy Matters","url":"https://www.northlancashirecab.org.uk/","loc":"area"}},{"type":"Feature","geometry":{"type":"Point","coordinates":[-0.96586,53.33619]},"properties":{"name":"Citizens Advice North Nottinghamshire","n":2,"total":556054,"projects":"Be Savvy - Be Energy Smart! · Energy Advice on Prescription","url":"https://canns.org.uk/","loc":"area"}},{"type":"Feature","geometry":{"type":"Point","coordinates":[-2.17369,53.03165]},"properties":{"name":"Citizens Advice North Staffordshire","n":2,"total":565016,"projects":"PMW Energy Redress · PMW Energy","url":"http://snscab.org.uk/","loc":"office"}},{"type":"Feature","geometry":{"type":"Point","coordinates":[-1.2677,53.40566]},"properties":{"name":"Citizens Advice Rotherham & District","n":1,"total":100163,"projects":"The Energy Debt Support Service","url":"https://www.citizensadvicerotherham.org.uk/","loc":"area"}},{"type":"Feature","geometry":{"type":"Point","coordinates":[-2.23882,53.45504]},"properties":{"name":"Citizens Advice SORT Group","n":2,"total":625024,"projects":"Healthy Homes, Healthier Lives GM · Switching to Smart","url":"https://www.casort.org/","loc":"area"}},{"type":"Feature","geometry":{"type":"Point","coordinates":[-2.23217,53.48471]},"properties":{"name":"Citizens Advice SORT Group","n":4,"total":1001059,"projects":"EnergyWise: AI Powered Advice · EnerGenie: AI-Powered Energy Advice Delivery · Sparky: The AI Energy Advice Chatbot …","url":"https://www.casort.org/","loc":"office"}},{"type":"Feature","geometry":{"type":"Point","coordinates":[-0.18981,51.36297]},"properties":{"name":"Citizens Advice Sutton","n":2,"total":439065,"projects":"Energymax · Energy Max","url":"https://www.citizensadvicesutton.org.uk/","loc":"area"}},{"type":"Feature","geometry":{"type":"Point","coordinates":[-0.00605,51.59871]},"properties":{"name":"Citizens Advice Waltham Forest","n":2,"total":99817,"projects":"Levelling the Field · Levelling the field","url":"https://www.citizensadvice.org.uk/local/waltham-forest/","loc":"area"}},{"type":"Feature","geometry":{"type":"Point","coordinates":[-0.894,51.44595]},"properties":{"name":"Citizens Advice Wokingham","n":1,"total":139396,"projects":"EnergyWise Wokingham","url":"https://citizensadvicewokingham.org.uk/","loc":"area"}},{"type":"Feature","geometry":{"type":"Point","coordinates":[0.16366,51.47775]},"properties":{"name":"Community Action Northumberland","n":1,"total":147995,"projects":"Remote Northumberland Energy Advice","url":"http://ca-north.org.uk/","loc":"area"}},{"type":"Feature","geometry":{"type":"Point","coordinates":[-1.95032,55.31209]},"properties":{"name":"Community Action Northumberland","n":4,"total":769158,"projects":"Northumberland Community Energy Ltd · Powering People · Domestic carbon reduction in off-gas Northumberland …","url":"https://ca-north.org.uk/","loc":"area"}},{"type":"Feature","geometry":{"type":"Point","coordinates":[-1.13426,52.63321]},"properties":{"name":"Community Advice and Law Service (CALS)","n":2,"total":431995,"projects":"Energywise Plus · Energywise Plus","url":"https://cals.uk.net/","loc":"area"}},{"type":"Feature","geometry":{"type":"Point","coordinates":[-4.90904,50.32841]},"properties":{"name":"Community Energy Plus","n":8,"total":2741149,"projects":"Cornwall Energy Advice Service · Positive Action for Wellbeing & Support · Park Homes PLUS …","url":"https://cep.org.uk/","loc":"area"}},{"type":"Feature","geometry":{"type":"Point","coordinates":[-1.21588,54.54473]},"properties":{"name":"Community Ventures (Middlesbrough) Ltd","n":1,"total":348532,"projects":"CVL Thermal Comfort Project","url":"https://www.communityventuresteesvalley.org/","loc":"area"}},{"type":"Feature","geometry":{"type":"Point","coordinates":[-0.09371,51.35661]},"properties":{"name":"Croydon BME Forum","n":3,"total":184386,"projects":"Healthy Homes for all · Healthy Homes for all 2 · Healthy Homes for all","url":"https://www.cbmeforum.org/","loc":"area"}},{"type":"Feature","geometry":{"type":"Point","coordinates":[-2.23882,53.45504]},"properties":{"name":"Cumbria Action for Sustainability","n":1,"total":161758,"projects":"Retrofit for Cumbria","url":"https://futureproofcumbria.org.uk/","loc":"area"}},{"type":"Feature","geometry":{"type":"Point","coordinates":[-1.54637,53.53174]},"properties":{"name":"DIAL Barnsley","n":2,"total":569790,"projects":"Warm Connections Plus · Warm Connections","url":"https://dialbarnsley.org.uk/","loc":"area"}},{"type":"Feature","geometry":{"type":"Point","coordinates":[-1.48259,53.55352]},"properties":{"name":"DIAL Barnsley","n":1,"total":256441,"projects":"Warm connections","loc":"area"}},{"type":"Feature","geometry":{"type":"Point","coordinates":[1.66681,52.61595]},"properties":{"name":"DIAL Great Yarmouth","n":1,"total":49500,"projects":"Great Yarmouth Energy Resilience","url":"https://www.dial-greatyarmouth.org.uk/","loc":"area"}},{"type":"Feature","geometry":{"type":"Point","coordinates":[-1.96404,52.60313]},"properties":{"name":"Darlaston All Active","n":1,"total":42385,"projects":"Darlaston Energy Busters","url":"http://darlastonallactive.co.uk/","loc":"area"}},{"type":"Feature","geometry":{"type":"Point","coordinates":[-1.55177,54.53978]},"properties":{"name":"Darlington Association on Disability","n":1,"total":49931,"projects":"Accessible Energy Support","url":"https://www.darlingtondisability.org/","loc":"area"}},{"type":"Feature","geometry":{"type":"Point","coordinates":[-1.55177,54.53978]},"properties":{"name":"Darlington Citizens Advice","n":1,"total":161801,"projects":"Energy Focus Local","url":"https://www.citizensadvicedrc.org.uk/","loc":"area"}},{"type":"Feature","geometry":{"type":"Point","coordinates":[-1.45973,52.91062]},"properties":{"name":"Derby City Mission Ltd","n":1,"total":91506,"projects":"Energy Advice in Inner City Derby","url":"https://www.derbycitymission.org.uk/","loc":"area"}},{"type":"Feature","geometry":{"type":"Point","coordinates":[-1.55434,53.13947]},"properties":{"name":"Derbyshire Districts Citizens Advice Bureau","n":1,"total":356199,"projects":"Age Well Energy Advice","url":"https://www.citizensadvicederbyshiredistricts.org.uk/","loc":"office"}},{"type":"Feature","geometry":{"type":"Point","coordinates":[-2.20415,53.00836]},"properties":{"name":"Disability Solutions West Midlands","n":1,"total":42238,"projects":"Disability Solutions Energy Support","url":"https://disabilitysolutions.org.uk/","loc":"office"}},{"type":"Feature","geometry":{"type":"Point","coordinates":[-0.05494,51.54531]},"properties":{"name":"East End Citizens Advice Bureaux","n":1,"total":491099,"projects":"EastEnd Energy Advice & Empowerment Project","url":"https://eastendcab.org.uk/","loc":"office"}},{"type":"Feature","geometry":{"type":"Point","coordinates":[-1.47094,53.38122]},"properties":{"name":"Element Society","n":1,"total":24688,"projects":"VoltEdge - Energy Saving & Advice Programme","url":"https://www.elementsociety.co.uk/","loc":"office"}},{"type":"Feature","geometry":{"type":"Point","coordinates":[-1.54637,53.53174]},"properties":{"name":"Energise Barnsley","n":1,"total":1,"projects":"FiT for Solar - Barnsley","url":"https://www.energisebarnsley.co.uk/","loc":"area"}},{"type":"Feature","geometry":{"type":"Point","coordinates":[0.47438,50.84007]},"properties":{"name":"Energise Sussex Coast","n":1,"total":188494,"projects":"Energising Communities","url":"https://www.energisesussexcoast.co.uk/","loc":"office"}},{"type":"Feature","geometry":{"type":"Point","coordinates":[-3.0922,53.31374]},"properties":{"name":"Energy Projects Plus","n":1,"total":173222,"projects":"Energy Action For Warmth","url":"https://www.epplus.org.uk/","loc":"area"}},{"type":"Feature","geometry":{"type":"Point","coordinates":[-3.02617,53.40893]},"properties":{"name":"Energy Projects Plus","n":1,"total":62864,"projects":"Sustainable Seacombe","url":"https://www.epplus.org.uk/","loc":"area"}},{"type":"Feature","geometry":{"type":"Point","coordinates":[-3.02973,53.41615]},"properties":{"name":"Energy Projects Plus","n":5,"total":1835704,"projects":"Warm and Well · Warmth For Health · Warm and Well …","url":"https://www.epplus.org.uk/","loc":"office"}},{"type":"Feature","geometry":{"type":"Point","coordinates":[-1.42301,54.88633]},"properties":{"name":"FISCUS North Limited","n":1,"total":253127,"projects":"Warm Up Sunderland","url":"https://www.facebook.com/FISCUSCommunityAdvice/","loc":"area"}},{"type":"Feature","geometry":{"type":"Point","coordinates":[-1.75456,53.79078]},"properties":{"name":"Family Action","n":1,"total":107037,"projects":"Bradford Energy Advice","url":"https://www.family-action.org.uk/","loc":"area"}},{"type":"Feature","geometry":{"type":"Point","coordinates":[-0.13654,53.53673]},"properties":{"name":"Foresight (North East Lincolnshire) Limited","n":1,"total":47027,"projects":"Making best use of my Energy","loc":"area"}},{"type":"Feature","geometry":{"type":"Point","coordinates":[-2.22765,53.48622]},"properties":{"name":"Foundations Independent Living Trust","n":2,"total":541695,"projects":"Warm and Adapted Homes · Warm and Adapted Homes","url":"https://www.foundations.uk.com/how-we-help/foundations-independent-living-trust/","loc":"office"}},{"type":"Feature","geometry":{"type":"Point","coordinates":[-2.44282,53.79857]},"properties":{"name":"Friends of St Nicholas Fields","n":1,"total":49041,"projects":"York Energy Advice and Training","loc":"area"}},{"type":"Feature","geometry":{"type":"Point","coordinates":[-1.0428,53.96973]},"properties":{"name":"Friends of St Nicholas Fields","n":1,"total":49042,"projects":"York Energy Advice & Training","url":"https://www.stnicks.org.uk/about-us/","loc":"area"}},{"type":"Feature","geometry":{"type":"Point","coordinates":[-2.74867,54.66213]},"properties":{"name":"Futureproof Cumbria","n":2,"total":1191106,"projects":"Home Energy Made Easy · Cold to Cosy Homes Cumbria","url":"https://futureproofcumbria.org.uk/","loc":"office"}},{"type":"Feature","geometry":{"type":"Point","coordinates":[-0.56419,51.75997]},"properties":{"name":"Grand Union Community Energy","n":1,"total":366200,"projects":"Heating Kings Langley","url":"https://guce.org.uk/","loc":"office"}},{"type":"Feature","geometry":{"type":"Point","coordinates":[-1.32314,50.70005]},"properties":{"name":"Green Isle of Wight CIC","n":1,"total":459625,"projects":"VIBE (Virtual Island Battery Ecosystem)","url":"https://www.greeniow.org.uk/","loc":"area"}},{"type":"Feature","geometry":{"type":"Point","coordinates":[-0.13654,53.53673]},"properties":{"name":"Grimsby Community Energy","n":1,"total":126440,"projects":"GCE Community Solar Project","url":"https://grimsbycommunityenergy.coop/","loc":"area"}},{"type":"Feature","geometry":{"type":"Point","coordinates":[-1.14271,52.95057]},"properties":{"name":"Groundwork Five Counties","n":4,"total":1180258,"projects":"Groundwork Five Counties - Green Doctor service · Groundwork Five Counties - Green Doctor service · Groundwork Five Counties - Green Doctor service …","url":"https://www.groundwork.org.uk/fivecounties/","loc":"office"}},{"type":"Feature","geometry":{"type":"Point","coordinates":[-0.34617,51.4753]},"properties":{"name":"Groundwork London","n":1,"total":49528,"projects":"EASIE: Energy-Advice Spread through Innovation Engagement","url":"https://www.groundwork.org.uk/hubs/london/","loc":"area"}},{"type":"Feature","geometry":{"type":"Point","coordinates":[-0.10911,51.4993]},"properties":{"name":"Groundwork London","n":4,"total":1385118,"projects":"HEART · South London Energy Efficiency Partnership (SLEEP) · COMFORT …","url":"https://www.groundwork.org.uk/hubs/london/","loc":"office"}},{"type":"Feature","geometry":{"type":"Point","coordinates":[-0.12772,51.50741]},"properties":{"name":"Groundwork London","n":1,"total":291151,"projects":"HEART","loc":"area"}},{"type":"Feature","geometry":{"type":"Point","coordinates":[-0.19933,51.62213]},"properties":{"name":"Groundwork London","n":1,"total":49768,"projects":"Fuel-poverty advice for Barnet/ Brent (FABB)","url":"https://www.groundwork.org.uk/hubs/london/","loc":"area"}},{"type":"Feature","geometry":{"type":"Point","coordinates":[-3.11507,54.72837]},"properties":{"name":"Groundwork North East and Cumbria","n":1,"total":275494,"projects":"Safe & Warm West Cumbria (SWWC)","url":"https://www.groundwork.org.uk/north-east-and-cumbria/","loc":"area"}},{"type":"Feature","geometry":{"type":"Point","coordinates":[-1.42301,54.88633]},"properties":{"name":"Groundwork North East and Cumbria","n":1,"total":208082,"projects":"Energy Savvy","url":"https://www.groundwork.org.uk/north-east-and-cumbria/","loc":"area"}},{"type":"Feature","geometry":{"type":"Point","coordinates":[-2.15671,53.61696]},"properties":{"name":"Groundwork Oldham and Rochdale","n":1,"total":75745,"projects":"Energyworks GM","url":"https://www.groundwork.org.uk/hubs/greatermanchester/","loc":"area"}},{"type":"Feature","geometry":{"type":"Point","coordinates":[-1.80317,50.89269]},"properties":{"name":"Groundwork South Trust Limited","n":1,"total":389526,"projects":"SPARK","url":"https://www.groundwork.org.uk/hubs/south/","loc":"area"}},{"type":"Feature","geometry":{"type":"Point","coordinates":[-0.59296,51.50886]},"properties":{"name":"Groundwork South Trust Limited","n":1,"total":44411,"projects":"SAVERS","url":"https://www.groundwork.org.uk/hubs/south/","loc":"area"}},{"type":"Feature","geometry":{"type":"Point","coordinates":[-1.90294,52.47928]},"properties":{"name":"Groundwork West Midlands","n":1,"total":59314,"projects":"There's no place like home","loc":"area"}},{"type":"Feature","geometry":{"type":"Point","coordinates":[-0.33258,51.45259]},"properties":{"name":"Habitats & Heritage","n":2,"total":180714,"projects":"South West London Energy Advice Partnership · SW Leap Fuel Crisis Extension","url":"https://habitatsandheritage.org.uk/","loc":"office"}},{"type":"Feature","geometry":{"type":"Point","coordinates":[-0.21428,51.52421]},"properties":{"name":"Hodan Somali Community","n":1,"total":49384,"projects":"EnergySavers: Empowering Somali and BAME Families","url":"https://www.hodan.org.uk/","loc":"office"}},{"type":"Feature","geometry":{"type":"Point","coordinates":[-2.44898,53.68888]},"properties":{"name":"IMO Charity","n":1,"total":76956,"projects":"‘Be Warm, Save Money’","url":"https://www.imocharity.org/home/","loc":"area"}},{"type":"Feature","geometry":{"type":"Point","coordinates":[-2.47334,53.7491]},"properties":{"name":"IMO Charity","n":1,"total":76960,"projects":"Be Warm, Save Money","url":"https://www.imocharity.org/home/","loc":"office"}},{"type":"Feature","geometry":{"type":"Point","coordinates":[-1.82829,53.84715]},"properties":{"name":"Inspired Neighbourhoods Charitable Trust","n":1,"total":350080,"projects":"Smart Energy Hub","url":"https://inspiredneighbourhoods.co.uk/#!event-list","loc":"area"}},{"type":"Feature","geometry":{"type":"Point","coordinates":[-6.31488,49.93488]},"properties":{"name":"Isles of Scilly Community Venture CIC","n":1,"total":147204,"projects":"Expanding Community Generation on Scilly","url":"https://www.ioscv.co.uk/","loc":"area"}},{"type":"Feature","geometry":{"type":"Point","coordinates":[-0.09211,51.48272]},"properties":{"name":"KeyRing-Living Support Networks","n":1,"total":99205,"projects":"Time for TEA (Targeted Energy Advice)","url":"https://www.keyring.org/","loc":"office"}},{"type":"Feature","geometry":{"type":"Point","coordinates":[-2.83442,53.42787]},"properties":{"name":"Knowsley District Citizens Advice Bureau","n":1,"total":178320,"projects":"Knowsley Community Energy Support","url":"https://www.citizensadviceknowsley.org.uk/","loc":"area"}},{"type":"Feature","geometry":{"type":"Point","coordinates":[-2.16076,53.41847]},"properties":{"name":"Lancashire BME Network Ltd","n":1,"total":439313,"projects":"Energy 360","url":"https://lancashirebmenetwork.org.uk/","loc":"area"}},{"type":"Feature","geometry":{"type":"Point","coordinates":[-2.16076,53.41847]},"properties":{"name":"Lancashire Women","n":1,"total":329772,"projects":"Energy Advice for Lancashire Women","url":"https://lancashirewomen.org/","loc":"area"}},{"type":"Feature","geometry":{"type":"Point","coordinates":[-2.36293,53.75252]},"properties":{"name":"Lancashire Women","n":2,"total":1239993,"projects":"Lancashire Women Energy Advice · Lancashire Women's Energy Advice","url":"https://lancashirewomen.org/","loc":"office"}},{"type":"Feature","geometry":{"type":"Point","coordinates":[-1.12576,53.5215]},"properties":{"name":"Live Inclusive","n":2,"total":361115,"projects":"Recharge · Recharge Energy Advice Project","url":"http://www.liveinclusive.co.uk/","loc":"office"}},{"type":"Feature","geometry":{"type":"Point","coordinates":[-2.72179,52.66589]},"properties":{"name":"Marches Energy Advice","n":2,"total":1491392,"projects":"Energy Advice with Community Connectors · Healthy Homes Shropshire","url":"https://mea.org.uk/","loc":"area"}},{"type":"Feature","geometry":{"type":"Point","coordinates":[-2.75224,52.71391]},"properties":{"name":"Marches Energy Advice","n":6,"total":1848057,"projects":"Building Retrofit in the Marches 2 · The Retrofit Skills Home · Telford Energy Advice Phase3 (TEA3) …","url":"https://mea.org.uk/","loc":"office"}},{"type":"Feature","geometry":{"type":"Point","coordinates":[-1.45973,52.91062]},"properties":{"name":"Marches Energy Advice","n":4,"total":1179528,"projects":"Warmer Derby & Derbyshire 2 - extension · Accessible Retrofit, Derby & Derbyshire · Warmer Derby & Derbyshire …","url":"https://mea.org.uk/","loc":"area"}},{"type":"Feature","geometry":{"type":"Point","coordinates":[-2.72179,52.66589]},"properties":{"name":"Marches Energy Agency","n":1,"total":209474,"projects":"Healthy Homes Shropshire","loc":"area"}},{"type":"Feature","geometry":{"type":"Point","coordinates":[-2.44875,52.6754]},"properties":{"name":"Marches Energy Agency","n":1,"total":36713,"projects":"Telford Energy Advice (TEA)","loc":"area"}},{"type":"Feature","geometry":{"type":"Point","coordinates":[-1.47805,52.92469]},"properties":{"name":"Marches Energy Agency","n":2,"total":324160,"projects":"Warmer Derby & Derbyshire · Warmer Derby & Derbyshire 2 - Extension","loc":"area"}},{"type":"Feature","geometry":{"type":"Point","coordinates":[-1.21588,54.54473]},"properties":{"name":"Middlesbrough Citizens Advice Bureau","n":1,"total":46113,"projects":"Energy Advice Middlesbrough","url":"https://www.mcab.org.uk/","loc":"area"}},{"type":"Feature","geometry":{"type":"Point","coordinates":[-1.21588,54.54473]},"properties":{"name":"Middlesbrough Environment City Trust","n":2,"total":373545,"projects":"Warmth and Well being South Tees · Cosy Homes South Tees 2","url":"https://menvcity.org.uk/","loc":"area"}},{"type":"Feature","geometry":{"type":"Point","coordinates":[-1.07003,54.61783]},"properties":{"name":"Middlesbrough Environment City Trust","n":1,"total":108601,"projects":"Cosy Homes South Tees","url":"https://menvcity.org.uk/","loc":"area"}},{"type":"Feature","geometry":{"type":"Point","coordinates":[-0.74183,52.08165]},"properties":{"name":"Milton Keynes Citizens Advice Bureau","n":1,"total":187490,"projects":"FuPOS - Fuel Poverty Outreach Service","url":"https://www.miltonkeynescab.org.uk/","loc":"area"}},{"type":"Feature","geometry":{"type":"Point","coordinates":[-3.96827,51.08419]},"properties":{"name":"NDVS","n":1,"total":133749,"projects":"Warmer Homes North Devon","loc":"area"}},{"type":"Feature","geometry":{"type":"Point","coordinates":[-3.96827,51.08419]},"properties":{"name":"NDVS (North Devon Voluntary Service)","n":1,"total":133749,"projects":"Warmer Homes North Devon","url":"https://ndvs.org.uk/","loc":"area"}},{"type":"Feature","geometry":{"type":"Point","coordinates":[-1.9078,51.33545]},"properties":{"name":"Nadder Community Energy","n":1,"total":70000,"projects":"Nadder Community Energy Project","url":"https://www.nadderce.org.uk/","loc":"area"}},{"type":"Feature","geometry":{"type":"Point","coordinates":[-1.86981,52.49269]},"properties":{"name":"Narthex Sparkhill","n":1,"total":49999,"projects":"Narthex MDA/IAG Energy Support","url":"https://www.narthex.org.uk/","loc":"area"}},{"type":"Feature","geometry":{"type":"Point","coordinates":[-1.62101,54.97384]},"properties":{"name":"National Energy Action","n":1,"total":138809,"projects":"North East, Yorkshire and London","loc":"office"}},{"type":"Feature","geometry":{"type":"Point","coordinates":[-1.21863,51.02189]},"properties":{"name":"National Energy Foundation","n":1,"total":749925,"projects":"Pilot Whole House Retrofit Service","url":"https://nef.org.uk/","loc":"area"}},{"type":"Feature","geometry":{"type":"Point","coordinates":[-0.74019,52.00147]},"properties":{"name":"National Energy Foundation","n":3,"total":2141519,"projects":"Better Housing Better Health West Midlands · Better Housing Better Health (Phase 2) · Better Housing Better Health - East","url":"https://nef.org.uk/","loc":"office"}},{"type":"Feature","geometry":{"type":"Point","coordinates":[-0.75406,52.04302]},"properties":{"name":"National Energy Foundation","n":1,"total":119256,"projects":"Better Housing Better Health","loc":"area"}},{"type":"Feature","geometry":{"type":"Point","coordinates":[1.28768,52.6304]},"properties":{"name":"Norfolk Citizens Advice","n":1,"total":134202,"projects":"Norfolk Energy Collaboration","url":"https://www.ncab.org.uk/","loc":"office"}},{"type":"Feature","geometry":{"type":"Point","coordinates":[-3.96827,51.08419]},"properties":{"name":"North Devon Homes","n":3,"total":538874,"projects":"Integrating heat pumps with solar batteries · Making heat cheaper, smarter and greener - Boxergy · Evaluating solar PV with electric heating","url":"https://www.ndh-ltd.co.uk/","loc":"area"}},{"type":"Feature","geometry":{"type":"Point","coordinates":[-3.96827,51.08419]},"properties":{"name":"North Devon Homes and National Energy Action","n":1,"total":163419,"projects":"Making heat cheaper, smarter and greener","loc":"area"}},{"type":"Feature","geometry":{"type":"Point","coordinates":[-3.96827,51.08419]},"properties":{"name":"North Devon Voluntary Service","n":1,"total":184113,"projects":"Warmer Homes Phase 2","url":"https://ndvs.org.uk/","loc":"area"}},{"type":"Feature","geometry":{"type":"Point","coordinates":[-0.11508,51.46471]},"properties":{"name":"North Kensington Community Energy","n":1,"total":485133,"projects":"Pan-London Community Owned Solar PV","url":"https://www.repowering.org.uk/north-kensington-community-energy/","loc":"office"}},{"type":"Feature","geometry":{"type":"Point","coordinates":[-0.60135,53.59685]},"properties":{"name":"North Lincolnshire Community Energy Limited","n":1,"total":150582,"projects":"North Lincs Community Energy","url":"https://nlce.coop/","loc":"area"}},{"type":"Feature","geometry":{"type":"Point","coordinates":[-1.50784,55.02746]},"properties":{"name":"North Tyneside Big Local","n":1,"total":48805,"projects":"Draught Includers","url":"https://www.ntbiglocal.org/","loc":"area"}},{"type":"Feature","geometry":{"type":"Point","coordinates":[-1.3341,54.13478]},"properties":{"name":"North Yorkshire Citizens Advice & Law Centre Ltd","n":1,"total":571384,"projects":"Future Energies Project","url":"https://www.cany.org.uk/","loc":"area"}},{"type":"Feature","geometry":{"type":"Point","coordinates":[-0.38253,53.77831]},"properties":{"name":"Northern Hull Community Development Ltd","n":1,"total":296454,"projects":"HEAT (Hull Energy Action Team)","url":"https://unityincommunity.org.uk/","loc":"office"}},{"type":"Feature","geometry":{"type":"Point","coordinates":[0.16366,51.47775]},"properties":{"name":"Northumberland County Blind Association","n":1,"total":39329,"projects":"Accessible heating controls","loc":"area"}},{"type":"Feature","geometry":{"type":"Point","coordinates":[-1.95032,55.31209]},"properties":{"name":"Northumberland County Blind Association","n":1,"total":39330,"projects":"Accessible heating controls","url":"https://vision-northumberland.org/","loc":"area"}},{"type":"Feature","geometry":{"type":"Point","coordinates":[0.16366,51.47775]},"properties":{"name":"Northumbrian Citizens Advice Bureau","n":1,"total":296765,"projects":"Redress to Reassess Northumberland","loc":"area"}},{"type":"Feature","geometry":{"type":"Point","coordinates":[-1.95032,55.31209]},"properties":{"name":"Northumbrian Citizens Advice Bureau","n":3,"total":995992,"projects":"Supporting the most vulnerable in Northumberland · Redress to Reassess Northumberland · Targeting most in need in Northumberland","url":"https://www.citizensadvicenorthumberland.org.uk/","loc":"area"}},{"type":"Feature","geometry":{"type":"Point","coordinates":[-1.17231,52.96036]},"properties":{"name":"Nottingham Energy Partnership","n":3,"total":997232,"projects":"The Home Energy Advice Team Hub · Conservation Retrofit Catalyst · Conservation Retrofit Catalyst","url":"https://nottenergy.com/","loc":"area"}},{"type":"Feature","geometry":{"type":"Point","coordinates":[1.29834,52.63728]},"properties":{"name":"Opening Doors","n":1,"total":47163,"projects":"Energy Champions Project","url":"https://www.openingdoors.org.uk/","loc":"office"}},{"type":"Feature","geometry":{"type":"Point","coordinates":[-2.72179,52.66589]},"properties":{"name":"Oswestry Community Action","n":1,"total":47288,"projects":"Saving energy - North Shropshire","url":"https://qube-oca.org.uk/","loc":"area"}},{"type":"Feature","geometry":{"type":"Point","coordinates":[-4.13478,50.39157]},"properties":{"name":"Outlandish Co-operative Limited","n":1,"total":49454,"projects":"Advanced reporting for community energy groups","url":"https://outlandish.com/","loc":"area"}},{"type":"Feature","geometry":{"type":"Point","coordinates":[-0.10827,51.56426]},"properties":{"name":"Outlandish Co-operative Limited","n":2,"total":223239,"projects":"Case notes system for energy advisors · Digital Tooling for Retrofit Case Management","url":"https://outlandish.com/","loc":"office"}},{"type":"Feature","geometry":{"type":"Point","coordinates":[-4.13478,50.39157]},"properties":{"name":"PEC Renewables","n":2,"total":924096,"projects":"Plymouth Solar Pipeline Campaign · Chelson Meadow Community Solar","url":"https://plymouthenergycommunity.com/about/pec-renewables","loc":"area"}},{"type":"Feature","geometry":{"type":"Point","coordinates":[-4.15714,50.36947]},"properties":{"name":"PEC Trust","n":4,"total":1400271,"projects":"Reconnect · Warm Homes · Energy Team …","url":"https://plymouthenergycommunity.com/","loc":"office"}},{"type":"Feature","geometry":{"type":"Point","coordinates":[-4.14207,50.37001]},"properties":{"name":"PEC Trust","n":2,"total":755050,"projects":"Energy Team · The Warm Homes project","loc":"area"}},{"type":"Feature","geometry":{"type":"Point","coordinates":[-4.13478,50.39157]},"properties":{"name":"PEC Trust","n":3,"total":704009,"projects":"Future Fit Homes for Ready Prospectors · Kings Tamerton Affordable Net Zero Homes · Plymouth Community Solar","url":"https://plymouthenergycommunity.com/","loc":"area"}},{"type":"Feature","geometry":{"type":"Point","coordinates":[-2.21412,53.4835]},"properties":{"name":"People Powered Retrofit","n":1,"total":289392,"projects":"Community of Practice for Community Retrofit","url":"https://retrofit.coop/","loc":"office"}},{"type":"Feature","geometry":{"type":"Point","coordinates":[-0.26639,52.60497]},"properties":{"name":"Peterborough Environment City Trust","n":4,"total":1121572,"projects":"HEART Warming: Expanding Lincolnshire Energy Support · Cambridgeshire Home Energy Support Services · Cambridgeshire Home Energy Support Services Plus …","url":"https://www.pect.org.uk/","loc":"area"}},{"type":"Feature","geometry":{"type":"Point","coordinates":[-2.25595,50.73882]},"properties":{"name":"Purbeck Citizens Advice Bureau","n":3,"total":808753,"projects":"Keep Warm for Less · Energy for Life · Dorset Fighting Fuel Poverty","url":"https://edpcitizensadvice.org.uk/","loc":"area"}},{"type":"Feature","geometry":{"type":"Point","coordinates":[-0.07698,51.49965]},"properties":{"name":"Pure Leapfrog","n":2,"total":550593,"projects":"Community Energy Virtual Microgrids · Energy Advice for Mortgage Prisoners","url":"https://www.pureleapfrog.org/","loc":"office"}},{"type":"Feature","geometry":{"type":"Point","coordinates":[-3.068,51.01408]},"properties":{"name":"Re:work Ltd","n":1,"total":36769,"projects":"Keeping Warm this Winter","url":"https://reworkltd.org.uk/","loc":"office"}},{"type":"Feature","geometry":{"type":"Point","coordinates":[-0.98257,51.4501]},"properties":{"name":"Reading Citizens Advice Bureau","n":1,"total":207345,"projects":"Not One Penny More","url":"https://www.citizensadvicereading.org/","loc":"area"}},{"type":"Feature","geometry":{"type":"Point","coordinates":[-0.11508,51.46471]},"properties":{"name":"Repowering Limited","n":4,"total":1307348,"projects":"Repowering Homes · Urban community solar for Londoners · Repowering Homes: Scaling Retrofit for Blocks …","url":"https://www.repowering.org.uk/","loc":"office"}},{"type":"Feature","geometry":{"type":"Point","coordinates":[-0.1408,51.52544]},"properties":{"name":"Research Institute for Disabled Consumers","n":2,"total":267383,"projects":"How accessible are switching services? · Enabling Inclusive Innovation & Sustainable Choice","url":"https://www.ridc.org.uk/","loc":"office"}},{"type":"Feature","geometry":{"type":"Point","coordinates":[-2.27088,53.68796]},"properties":{"name":"Rossendale Valley Energy","n":1,"total":461480,"projects":"Fairer Warmth Retrofit Record","url":"https://rvenergy.org.uk/","loc":"area"}},{"type":"Feature","geometry":{"type":"Point","coordinates":[-1.2677,53.40566]},"properties":{"name":"Rotherham Federation","n":2,"total":440106,"projects":"Rotherham Energy Know How · Rotherham Energy Angels","url":"https://www.rotherhamfederation.org/","loc":"area"}},{"type":"Feature","geometry":{"type":"Point","coordinates":[-1.35474,53.43072]},"properties":{"name":"Rotherham Federation","n":1,"total":217204,"projects":"Rotherham Energy Angels","loc":"area"}},{"type":"Feature","geometry":{"type":"Point","coordinates":[-0.12772,51.50741]},"properties":{"name":"Royal Association for Deaf People","n":1,"total":120547,"projects":"Deaf Energy Smart","loc":"area"}},{"type":"Feature","geometry":{"type":"Point","coordinates":[-0.09874,51.5321]},"properties":{"name":"Royal Association for Deaf People","n":2,"total":197261,"projects":"Deaf Smart Energy · Deaf Energy Smart","url":"https://royaldeaf.org.uk/","loc":"office"}},{"type":"Feature","geometry":{"type":"Point","coordinates":[0.1601,52.66382]},"properties":{"name":"Rural Cambs Citizens Advice Bureau","n":1,"total":270000,"projects":"Rural Cambridgeshire Community Energy Advice","url":"https://www.citizensadviceruralcambs.org.uk/","loc":"office"}},{"type":"Feature","geometry":{"type":"Point","coordinates":[-1.98034,52.58622]},"properties":{"name":"Ryecroft NRC","n":1,"total":40600,"projects":"Energy Resilience Project","loc":"area"}},{"type":"Feature","geometry":{"type":"Point","coordinates":[-1.86981,52.49269]},"properties":{"name":"Saltley Community Association","n":2,"total":221733,"projects":"Warm and well in East Birmingham · Supporting vulnerable energy consumers in Saltley","url":"http://saltleycommunitycentre.org/","loc":"area"}},{"type":"Feature","geometry":{"type":"Point","coordinates":[-2.99109,53.5903]},"properties":{"name":"Sefton Carers Centre","n":1,"total":246053,"projects":"Energy Support for Carers","url":"https://www.sefton-carers.org.uk/","loc":"area"}},{"type":"Feature","geometry":{"type":"Point","coordinates":[-2.97358,53.50224]},"properties":{"name":"Sefton OPERA (Older Persons Enabling Resource and Action)","n":1,"total":118472,"projects":"Sefton 'Silver Savers' Roadshow","loc":"area"}},{"type":"Feature","geometry":{"type":"Point","coordinates":[-2.99109,53.5903]},"properties":{"name":"Sefton OPERA Older Persons Enabling Resource & Action","n":1,"total":118472,"projects":"Sefton 'Silver Savers' Roadshow","url":"https://reachvolunteering.org.uk/org/sefton-opera-older-persons-enabling-resource-action","loc":"area"}},{"type":"Feature","geometry":{"type":"Point","coordinates":[-2.437,51.54202]},"properties":{"name":"Severn Wye Energy Agency","n":2,"total":891842,"projects":"Empowering Energy Communities · Energy Advocate - South Gloucestershire","url":"https://severnwye.org.uk/project/warm-and-well/","loc":"area"}},{"type":"Feature","geometry":{"type":"Point","coordinates":[-2.25381,51.86069]},"properties":{"name":"Severn Wye Energy Agency","n":11,"total":3971818,"projects":"Empowering Ceredigion through Community-based Energy Advice · Powys Energy For All · Carbon Negative Household Energy through Pyrolysis-2 …","url":"https://severnwye.org.uk/project/warm-and-well/","loc":"office"}},{"type":"Feature","geometry":{"type":"Point","coordinates":[-2.75224,52.71391]},"properties":{"name":"Sharenergy Co-operative Ltd","n":1,"total":199600,"projects":"The Community Heat Development Unit","url":"https://www.sharenergy.coop/","loc":"office"}},{"type":"Feature","geometry":{"type":"Point","coordinates":[0.00624,51.48571]},"properties":{"name":"South East London Community Energy","n":1,"total":100137,"projects":"Southeast Social Solar Scale Up","url":"https://selce.org.uk/","loc":"office"}},{"type":"Feature","geometry":{"type":"Point","coordinates":[-3.83336,50.35646]},"properties":{"name":"South Hams Citizens Advice Bureau","n":4,"total":1147352,"projects":"RESET: Devon Energy Advice · Heat well for Less · Em-POWER …","url":"https://southhamscab.org.uk/","loc":"area"}},{"type":"Feature","geometry":{"type":"Point","coordinates":[-3.10581,51.01348]},"properties":{"name":"Southend Carers","n":1,"total":49948,"projects":"Carers Outreach, Advocacy & Support Together","url":"https://www.southendcarers.co.uk/","loc":"office"}},{"type":"Feature","geometry":{"type":"Point","coordinates":[-1.86337,52.89894]},"properties":{"name":"Southern Staffordshire Community Energy","n":2,"total":220280,"projects":"Solar for Social Impact Expansion · Staffordshire Energetic Communities","url":"https://staffscommunityenergy.org.uk/","loc":"office"}},{"type":"Feature","geometry":{"type":"Point","coordinates":[-1.3359,53.43987]},"properties":{"name":"Speakup Self Advocacy","n":1,"total":78504,"projects":"Prioritise Me","url":"https://www.speakup.org.uk/","loc":"office"}},{"type":"Feature","geometry":{"type":"Point","coordinates":[-1.23682,54.57643]},"properties":{"name":"Stockton and District Advice & Information Service","n":1,"total":367437,"projects":"Warm Up North","url":"https://www.stockton-cab.co.uk/","loc":"area"}},{"type":"Feature","geometry":{"type":"Point","coordinates":[1.14727,52.06014]},"properties":{"name":"Suffolk Refugee Support","n":1,"total":48780,"projects":"Refugee Energy Project Suffolk","url":"https://suffolkrefugee.org.uk/","loc":"office"}},{"type":"Feature","geometry":{"type":"Point","coordinates":[-1.76099,51.58852]},"properties":{"name":"Swindon and District Citizens Advice Bureau","n":1,"total":187996,"projects":"Swindon Energy Mentors","url":"https://www.citizensadviceswindon.org.uk/","loc":"area"}},{"type":"Feature","geometry":{"type":"Point","coordinates":[-0.14165,51.5368]},"properties":{"name":"The 10:10 Foundation","n":1,"total":249398,"projects":"Community pathways to clean, cheap energy","url":"https://www.wearepossible.org/","loc":"office"}},{"type":"Feature","geometry":{"type":"Point","coordinates":[-1.32314,50.70005]},"properties":{"name":"The Footprint Trust charity","n":1,"total":93470,"projects":"Warm Island - Energy Saving Guidance","url":"https://footprint-trust.co.uk/","loc":"area"}},{"type":"Feature","geometry":{"type":"Point","coordinates":[-0.38837,51.2949]},"properties":{"name":"The Footprint Trust charity","n":1,"total":76000,"projects":"Warm Island - Home Energy help","url":"https://footprint-trust.co.uk/","loc":"area"}},{"type":"Feature","geometry":{"type":"Point","coordinates":[-2.11424,52.58619]},"properties":{"name":"The Haven Wolverhampton","n":1,"total":130510,"projects":"Increasing energy awareness & resilience","url":"https://www.havenrefuge.org.uk/","loc":"area"}},{"type":"Feature","geometry":{"type":"Point","coordinates":[-0.74343,51.33853]},"properties":{"name":"The Hope Hub","n":1,"total":49773,"projects":"Energy Saving at The Hope Hub","url":"https://thehopehub.org.uk/","loc":"office"}},{"type":"Feature","geometry":{"type":"Point","coordinates":[-2.40024,53.08279]},"properties":{"name":"The National House Project","n":1,"total":191364,"projects":"Care leavers as Energy Champions - NHP","url":"https://thehouseproject.org/","loc":"office"}},{"type":"Feature","geometry":{"type":"Point","coordinates":[-2.1323,52.58742]},"properties":{"name":"The Refugee and Migrant Centre","n":1,"total":86722,"projects":"Small Changes = Smarter Energy","url":"https://rmcentre.org.uk/contact/","loc":"office"}},{"type":"Feature","geometry":{"type":"Point","coordinates":[-2.23882,53.45504]},"properties":{"name":"The Society for the Reduction of Carbon Ltd","n":1,"total":196417,"projects":"Retrofit for All: People Centred Retrofit","url":"https://carbon.coop/about/","loc":"area"}},{"type":"Feature","geometry":{"type":"Point","coordinates":[-2.21412,53.4835]},"properties":{"name":"The Society for the Reduction of Carbon Ltd","n":1,"total":168683,"projects":"Socialising heat pumps' flexibility benefits","url":"https://carbon.coop/about/","loc":"office"}},{"type":"Feature","geometry":{"type":"Point","coordinates":[-2.77508,51.47189]},"properties":{"name":"Torus Foundation","n":1,"total":165045,"projects":"Supportive Energy","loc":"area"}},{"type":"Feature","geometry":{"type":"Point","coordinates":[-2.98265,53.40861]},"properties":{"name":"Torus Foundation","n":3,"total":643120,"projects":"Torus Foundation Supportive Energy · Supportive Energy' · Supportive Energy- phase two","url":"https://torusfoundation.org.uk/","loc":"office"}},{"type":"Feature","geometry":{"type":"Point","coordinates":[-2.97358,53.50224]},"properties":{"name":"Venus Working Creatively with Young Women","n":1,"total":88100,"projects":"Energy Support Project","loc":"area"}},{"type":"Feature","geometry":{"type":"Point","coordinates":[-2.99109,53.5903]},"properties":{"name":"Venus Working Creatively with Young Women","n":1,"total":88101,"projects":"Energy Support Project","url":"https://www.venuscharity.org/contact","loc":"area"}},{"type":"Feature","geometry":{"type":"Point","coordinates":[-2.58853,53.40058]},"properties":{"name":"Warrington Disability Partnership","n":2,"total":823833,"projects":"Energy Advice Support Service · Energy Saving Support Service","url":"https://www.disabilitypartnership.org.uk/","loc":"area"}},{"type":"Feature","geometry":{"type":"Point","coordinates":[-2.48166,53.24691]},"properties":{"name":"Weaver Vale Housing Trust","n":1,"total":186348,"projects":"Energy Advice to Reduce Fuel Poverty","url":"https://www.wvht.co.uk/contact-us","loc":"office"}},{"type":"Feature","geometry":{"type":"Point","coordinates":[-4.08479,50.63188]},"properties":{"name":"West Devon Community & Voluntary Services","n":2,"total":296511,"projects":"Warmer Healthier Homes SW Devon · Warmer Healthier Homes 2","url":"https://westdevoncvs.org.uk/","loc":"area"}},{"type":"Feature","geometry":{"type":"Point","coordinates":[-4.08479,50.63188]},"properties":{"name":"West Devon Community and Voluntary Services (WDCVS)","n":1,"total":98905,"projects":"Warmer Healthier Homes SW Devon","url":"https://www.westdevoncvs.org.uk/","loc":"area"}},{"type":"Feature","geometry":{"type":"Point","coordinates":[-1.50784,55.02746]},"properties":{"name":"Whitley Bay Big Local","n":1,"total":42554,"projects":"Draught Includers","url":"https://www.whitleybaybiglocal.org/","loc":"area"}},{"type":"Feature","geometry":{"type":"Point","coordinates":[-2.62969,53.54554]},"properties":{"name":"Wigan Warriors Community Association","n":1,"total":28433,"projects":"Energy champions programme","loc":"area"}},{"type":"Feature","geometry":{"type":"Point","coordinates":[-2.58964,53.52164]},"properties":{"name":"Wigan Warriors Community Foundation","n":1,"total":28420,"projects":"Energy Champions Programme","url":"https://www.wiganwarriors.com/community-education","loc":"area"}},{"type":"Feature","geometry":{"type":"Point","coordinates":[-0.1756,51.40504]},"properties":{"name":"Wimbledon Guild","n":1,"total":96524,"projects":"In person energy advice in Merton","url":"https://www.wimbledonguild.co.uk/","loc":"area"}},{"type":"Feature","geometry":{"type":"Point","coordinates":[-1.86981,52.49269]},"properties":{"name":"Witton Lodge Community Association","n":2,"total":1902322,"projects":"Birmingham Community Action Network : Energy (B:CAN) · Cost of living support - North Birmingham","url":"https://wittonlodge.org.uk/","loc":"area"}},{"type":"Feature","geometry":{"type":"Point","coordinates":[-1.52924,52.42079]},"properties":{"name":"Working Actively To Change Hillfields Ltd","n":1,"total":96145,"projects":"Coventry Community Energy Champions","url":"https://www.watchcharity.org.uk/","loc":"area"}},{"type":"Feature","geometry":{"type":"Point","coordinates":[-0.54596,51.24725]},"properties":{"name":"Zero Carbon Guildford","n":1,"total":586402,"projects":"Home Energy Advice Team (HEAT)","url":"https://www.zerocarbonguildford.org/","loc":"area"}},{"type":"Feature","geometry":{"type":"Point","coordinates":[-1.55114,53.98486]},"properties":{"name":"Zero Carbon Harrogate","n":1,"total":125422,"projects":"Retrofit Training and Engagement Programme","url":"https://www.zerocarbonharrogate.org.uk/","loc":"office"}},{"type":"Feature","geometry":{"type":"Point","coordinates":[-1.0926,50.82466]},"properties":{"name":"the Environment Centre","n":1,"total":173184,"projects":"Switched on Portmouth","url":"https://environmentcentre.com/","loc":"area"}},{"type":"Feature","geometry":{"type":"Point","coordinates":[-1.40431,50.90489]},"properties":{"name":"the Environment Centre","n":1,"total":43434,"projects":"Raising Standards for Southampton Tenants","url":"https://environmentcentre.com/","loc":"area"}},{"type":"Feature","geometry":{"type":"Point","coordinates":[-2.1511,53.73195]},"properties":{"name":"the Environment Centre (tEC)","n":1,"total":173183,"projects":"Switched on Portmouth","loc":"area"}}]}